stop_id,stop_code,stop_name,stop_lat,stop_lon,location_type,parent_station
S5382,5382,Appel du 18 Juin,43.63654684,3.83020264,1,
546,16202,Appel du 18 Juin,43.63654684,3.83020264,0,S5382
S5603,5603,Place Albert 1er - Saint-Charles,43.61644935,3.87424604,1,
1143,41127,Place Albert 1er - Saint-Charles,43.61644935,3.87424604,0,S5603
1174,41229,Place Albert 1er - Saint-Charles,43.61640389,3.87428193,0,S5603
S5400,5400,Catalpas,43.59281459,3.88377682,1,
520,12215,Catalpas,43.59281459,3.88377682,0,S5400
S5175,5175,Caylus,43.64585807,3.89852271,1,
1058,36141,Caylus,43.64585807,3.89852271,0,S5175
1095,36241,Caylus,43.64673969,3.89910394,0,S5175
S5268,5268,Cave Coopérative,43.64722038,3.80038625,1,
786,24108,Cave Coopérative,43.64722038,3.80038625,0,S5268
802,24206,Cave Coopérative,43.64671869,3.80158661,0,S5268
S5705,5705,Cave Coopérative,43.69444401,3.86232258,1,
746,23120,Cave Coopérative,43.69444401,3.86232258,0,S5705
S5745,5745,Centre Commercial,43.57063266,3.84724812,1,
858,26103,Centre Commercial,43.57063266,3.84724812,0,S5745
865,26206,Centre Commercial,43.57050323,3.84686143,0,S5745
S5177,5177,Charles de Gaulle,43.62823785,3.89665467,1,
419,10150,Charles de Gaulle,43.62823785,3.89665467,0,S5177
454,10246,Charles de Gaulle,43.62807734,3.89656365,0,S5177
1013,35110,Charles de Gaulle,43.62832981,3.89775865,0,S5177
1024,35210,Charles de Gaulle,43.62839396,3.89767378,0,S5177
1211,42151,Charles de Gaulle,43.62855518,3.89771531,0,S5177
1227,42219,Charles de Gaulle,43.62857369,3.89767869,0,S5177
1364,36143,Charles de Gaulle,43.62839396,3.89767378,0,S5177
S5401,5401,Celleneuve,43.61603788,3.82589254,1,
405,10119,Celleneuve,43.61603788,3.82589254,0,S5401
431,10201,Celleneuve,43.61597566,3.82584143,0,S5401
1251,43105,Celleneuve,43.61536339,3.82591208,0,S5401
1296,43253,Celleneuve,43.61560619,3.82590603,0,S5401
S5402,5402,Centrayrargues,43.59682233,3.88074356,1,
517,12210,Centrayrargues,43.59682233,3.88074356,0,S5402
S5176,5176,Centurions,43.63279798,3.9157162,1,
1214,42157,Centurions,43.63279798,3.9157162,0,S5176
1224,42213,Centurions,43.63282512,3.91570457,0,S5176
S5328,5328,Céreirède,43.58121717,3.89822771,1,
548,17102,Céreirède,43.58121717,3.89822771,0,S5328
559,17220,Céreirède,43.58131262,3.89846528,0,S5328
S5837,5837,Albert 1er - Cathédrale,43.61477524,3.87375554,1,
1430,44102,Albert 1er - Cathédrale,43.61477524,3.87375554,0,S5837
1436,44202,Albert 1er - Cathédrale,43.61480343,3.87366969,0,S5837
S5403,5403,Cervantès,43.62214972,3.85508267,1,
249,07109,Cervantès,43.62214972,3.85508267,0,S5403
294,07222,Cervantès,43.62290426,3.85448399,0,S5403
S5155,5155,Collège Le Bérange,43.66734133,4.02339175,1,
906,29111,Collège Le Bérange,43.66734133,4.02339175,0,S5155
914,29201,Collège Le Bérange,43.66733177,4.02342862,0,S5155
S5404,5404,Cévennes,43.62210151,3.84632017,1,
81,03130,Cévennes,43.62210151,3.84632017,0,S5404
92,03203,Cévennes,43.62202201,3.84621908,0,S5404
S5164,5164,Paul Cézanne,43.65997387,4.00685277,1,
901,29106,Paul Cézanne,43.65997387,4.00685277,0,S5164
920,29207,Paul Cézanne,43.65910906,4.00579966,0,S5164
S5415,5415,Cité Gély,43.6048637,3.85948499,1,
124,04112,Cité Gély,43.6048637,3.85948499,0,S5415
158,04229,Cité Gély,43.60466363,3.85900956,0,S5415
S5405,5405,Chambéry,43.59932734,3.88912375,1,
308,08105,Chambéry,43.59932734,3.88912375,0,S5405
336,08220,Chambéry,43.59887762,3.88976712,0,S5405
S5406,5406,Chantecler,43.63253825,3.87823145,1,
474,11116,Chantecler,43.63253825,3.87823145,0,S5406
486,11207,Chantecler,43.6322958,3.87821253,0,S5406
S5408,5408,Chasseurs,43.6032969,3.85647429,1,
123,04111,Chasseurs,43.6032969,3.85647429,0,S5408
159,04230,Chasseurs,43.60331644,3.85636348,0,S5408
S5782,5782,Châtaigniers,43.65093315,3.95932893,1,
641,21104,Châtaigniers,43.65093315,3.95932893,0,S5782
666,21214,Châtaigniers,43.6501659,3.95773473,0,S5782
S5409,5409,Château d'Ô,43.63131727,3.84299936,1,
89,03141,Château d'Ô,43.63131727,3.84299936,0,S5409
245,07104,Château d'Ô,43.6319278,3.84240901,0,S5409
300,07231,Château d'Ô,43.631291,3.84294916,0,S5409
1136,41113,Château d'Ô,43.63144188,3.84308928,0,S5409
1181,41243,Château d'Ô,43.63141526,3.84306383,0,S5409
S5257,5257,Albinoni,43.55813504,3.78637546,1,
983,33104,Albinoni,43.55813504,3.78637546,0,S5257
998,33206,Albinoni,43.55806232,3.78643542,0,S5257
S5557,5557,Maurice Chauvet,43.63864366,3.85652395,1,
223,06120,Maurice Chauvet,43.63864366,3.85652395,0,S5557
229,06203,Maurice Chauvet,43.63850435,3.85684208,0,S5557
S5179,5179,Chênes,43.63905104,3.90919239,1,
138,04163,Chênes,43.63905104,3.90919239,0,S5179
152,04208,Chênes,43.63902696,3.90899367,0,S5179
S5410,5410,Cheng-Du,43.59407479,3.84289573,1,
118,04102,Cheng-Du,43.59407479,3.84289573,0,S5410
164,04239,Cheng-Du,43.59327557,3.84348071,0,S5410
S5282,5282,Chesnaie,43.65886448,3.92401563,1,
686,22122,Chesnaie,43.65886448,3.92401563,0,S5282
S5558,5558,Maurice Chevalier,43.62858917,3.88722128,1,
394,10103,Maurice Chevalier,43.62858917,3.88722128,0,S5558
441,10217,Maurice Chevalier,43.6282325,3.88764476,0,S5558
S5178,5178,Chemin de la Monnaie,43.64357009,3.91062909,1,
142,04167,Chemin de la Monnaie,43.64357009,3.91062909,0,S5178
148,04204,Chemin de la Monnaie,43.64359813,3.91055558,0,S5178
S5678,5678,Winston Churchill,43.598963,3.85590133,1,
552,17132,Winston Churchill,43.598963,3.85590133,0,S5678
560,17232,Winston Churchill,43.59919629,3.85593227,0,S5678
S5413,5413,Cinsaults,43.62059599,3.85689751,1,
77,03124,Cinsaults,43.62059599,3.85689751,0,S5413
96,03207,Cinsaults,43.62052254,3.85700692,0,S5413
S5355,5355,Cirad de Baillarguet,43.68380785,3.87699053,1,
751,23125,Cirad de Baillarguet,43.68380785,3.87699053,0,S5355
780,23233,Cirad de Baillarguet,43.68383445,3.87701602,0,S5355
S5213,5213,Château,43.65547492,3.89119571,1,
679,22108,Château,43.65547492,3.89119571,0,S5213
1062,36154,Château,43.65534966,3.89240573,0,S5213
1099,36254,Château,43.65523586,3.89219214,0,S5213
1332,36142,Château,43.65532108,3.89126581,0,S5213
S5371,5371,Alco,43.62558326,3.84031118,1,
83,03135,Alco,43.62558326,3.84031118,0,S5371
90,03201,Alco,43.62582791,3.83952559,0,S5371
S5214,5214,Cimetière,43.65799115,3.89251488,1,
681,22110,Cimetière,43.65799115,3.89251488,0,S5214
S5215,5215,Église,43.65761658,3.88917379,1,
680,22109,Église,43.65761658,3.88917379,0,S5215
S5284,5284,Clos des Garrigues,43.65771063,3.91931532,1,
688,22124,Clos des Garrigues,43.65771063,3.91931532,0,S5284
S5183,5183,Closerie des Guilhems,43.63436344,3.89516345,1,
675,22102,Closerie des Guilhems,43.63436344,3.89516345,0,S5183
717,22219,Closerie des Guilhems,43.63600439,3.89420565,0,S5183
S5220,5220,Olivette,43.65859291,3.88942324,1,
713,22212,Olivette,43.65859291,3.88942324,0,S5220
S5222,5222,Stade,43.65349863,3.88921037,1,
678,22107,Stade,43.65349863,3.88921037,0,S5222
S5181,5181,Clairval,43.6301927,3.90259929,1,
1212,42153,Clairval,43.6301927,3.90259929,0,S5181
1226,42217,Clairval,43.63021983,3.90258766,0,S5181
S5419,5419,Claret,43.60578794,3.86215704,1,
125,04113,Claret,43.60578794,3.86215704,0,S5419
157,04228,Claret,43.60579056,3.86197154,0,S5419
S5422,5422,Collège Camille Claudel,43.6163966,3.86209392,1,
252,07113,Collège Camille Claudel,43.6163966,3.86209392,0,S5422
291,07218,Collège Camille Claudel,43.61648542,3.86217053,0,S5422
S5538,5538,Lycée Georges Clemenceau,43.60304744,3.87159679,1,
174,05119,Lycée Georges Clemenceau,43.60304744,3.87159679,0,S5538
197,05213,Lycée Georges Clemenceau,43.60314594,3.87162418,0,S5538
S5373,5373,Alpilles,43.63022312,3.87919619,1,
473,11115,Alpilles,43.63022312,3.87919619,0,S5373
487,11208,Alpilles,43.62977732,3.87956782,0,S5373
S5635,5635,Saint-Cléophas,43.59656648,3.87535607,1,
428,10161,Saint-Cléophas,43.59656648,3.87535607,0,S5635
525,12230,Saint-Cléophas,43.59469985,3.87576344,0,S5635
1198,42121,Saint-Cléophas,43.59499058,3.87617944,0,S5635
1240,42249,Saint-Cléophas,43.59500926,3.87613047,0,S5635
S5420,5420,Clolus,43.62878456,3.88110039,1,
472,11114,Clolus,43.62878456,3.88110039,0,S5420
488,11209,Clolus,43.62849435,3.88127818,0,S5420
S5182,5182,Clinique du Parc,43.6342063,3.89108702,1,
1015,35113,Clinique du Parc,43.6342063,3.89108702,0,S5182
S5416,5416,Cité Mion,43.60133285,3.88467549,1,
71,03112,Cité Mion,43.60133285,3.88467549,0,S5416
102,03216,Cité Mion,43.60046048,3.88470133,0,S5416
S5367,5367,Agropolis,43.64661865,3.8685715,1,
189,05165,Agropolis,43.64661865,3.8685715,0,S5367
206,05280,Agropolis,43.64601779,3.86846872,0,S5367
207,05281,Agropolis,43.646422,3.86849195,0,S5367
S5421,5421,CNRS,43.63866906,3.86557311,1,
177,05126,CNRS,43.63866906,3.86557311,0,S5421
193,05205,CNRS,43.63852335,3.86570537,0,S5421
S5747,5747,Collège Louis Germain,43.57868962,3.82306463,1,
588,20103,Collège Louis Germain,43.57868962,3.82306463,0,S5747
632,20234,Collège Louis Germain,43.57873201,3.8232512,0,S5747
S5815,5815,Combe Chaude,43.65285375,3.93476897,1,
1354,30111,Combe Chaude,43.65285375,3.93476897,0,S5815
1358,30211,Combe Chaude,43.65282533,3.93486723,0,S5815
S5426,5426,Comédie,43.60837114,3.87968247,1,
1146,41133,Comédie,43.60837114,3.87968247,0,S5426
1171,41223,Comédie,43.60836145,3.87973169,0,S5426
S5751,5751,La Condamine,43.571601,3.84420752,1,
1191,42105,La Condamine,43.571601,3.84420752,0,S5751
1247,42265,La Condamine,43.571601,3.84420752,0,S5751
S5342,5342,Ancienne Gare,43.58920996,3.80111413,1,
1113,38106,Ancienne Gare,43.58920996,3.80111413,0,S5342
1122,38206,Ancienne Gare,43.58914008,3.80096393,0,S5342
S5744,5744,Cave Coopérative,43.573213,3.82713831,1,
863,26111,Cave Coopérative,43.573213,3.82713831,0,S5744
868,26209,Cave Coopérative,43.57338203,3.82726636,0,S5744
S5429,5429,Coquelicots,43.59778227,3.88024999,1,
516,12209,Coquelicots,43.59778227,3.88024999,0,S5429
S5525,5525,Léon Cordès,43.60159071,3.88298775,1,
499,12112,Léon Cordès,43.60159071,3.88298775,0,S5525
S5431,5431,Corum,43.61425389,3.88195717,1,
1145,41131,Corum,43.61425389,3.88195717,0,S5431
1172,41225,Corum,43.61430692,3.88202047,0,S5431
1206,42141,Corum,43.61430041,3.88184707,0,S5431
1232,42229,Corum,43.61426429,3.88185847,0,S5431
S5706,5706,Coste Rousse,43.69477951,3.87039771,1,
754,23132,Coste Rousse,43.69477951,3.87039771,0,S5706
777,23230,Coste Rousse,43.69475838,3.87062017,0,S5706
S5748,5748,Côteaux,43.577554,3.8350043,1,
593,20109,Côteaux,43.577554,3.8350043,0,S5748
627,20228,Côteaux,43.57760912,3.83491919,0,S5748
S5594,5594,Pierre de Coubertin,43.63754316,3.81459546,1,
21,01135,Pierre de Coubertin,43.63754316,3.81459546,0,S5594
24,01141,Pierre de Coubertin,43.63774036,3.8146377,0,S5594
S5331,5331,Cougourlude,43.57135662,3.91426616,1,
1273,43161,Cougourlude,43.57135662,3.91426616,0,S5331
1299,43261,Cougourlude,43.571339,3.91424094,0,S5331
S5462,5462,François Couperin,43.61272207,3.90283795,1,
469,11104,François Couperin,43.61272207,3.90283795,0,S5462
491,11219,François Couperin,43.61288242,3.90355997,0,S5462
S5786,5786,Gustave Courbet,43.65838626,3.97602239,1,
650,21115,Gustave Courbet,43.65838626,3.97602239,0,S5786
656,21202,Gustave Courbet,43.6584662,3.9760866,0,S5786
S5672,5672,Villeneuve d'Angoulême,43.58873804,3.86574602,1,
1194,42113,Villeneuve d'Angoulême,43.58873804,3.86574602,0,S5672
1244,42257,Villeneuve d'Angoulême,43.58873874,3.86569657,0,S5672
S5261,5261,Les Cousses,43.55785346,3.7899405,1,
982,33103,Les Cousses,43.55785346,3.7899405,0,S5261
999,33207,Les Cousses,43.55782833,3.7898039,0,S5261
S5432,5432,Craponne,43.60619634,3.86761127,1,
540,15105,Craponne,43.60619634,3.86761127,0,S5432
S5166,5166,Le Créant,43.72757852,4.02857116,1,
939,31106,Le Créant,43.72757852,4.02857116,0,S5166
945,31206,Le Créant,43.7275303,4.02878049,0,S5166
S5417,5417,Cité Roger,43.62037812,3.85832712,1,
251,07111,Cité Roger,43.62037812,3.85832712,0,S5417
292,07219,Cité Roger,43.62039297,3.85855025,0,S5417
S5216,5216,La Croisée,43.66013843,3.89698175,1,
722,22238,La Croisée,43.66013843,3.89698175,0,S5216
S5344,5344,La Croix,43.58494716,3.80721284,1,
1110,38103,La Croix,43.58494716,3.80721284,0,S5344
1119,38203,La Croix,43.58497126,3.80742368,0,S5344
S5684,5684,Croix du Languedoc,43.56661682,3.94855349,1,
879,28111,Croix du Languedoc,43.56661682,3.94855349,0,S5684
894,28208,Croix du Languedoc,43.56680147,3.94883068,0,S5684
S5434,5434,Croix de Lavit,43.63948588,3.83934045,1,
796,24124,Croix de Lavit,43.63948588,3.83934045,0,S5434
812,24224,Croix de Lavit,43.63938703,3.83933785,0,S5434
S5436,5436,Croix du Capitaine,43.6020848,3.86657332,1,
287,07214,Croix du Capitaine,43.6020848,3.86657332,0,S5436
S5425,5425,Colverts,43.61376949,3.89816495,1,
349,09123,Colverts,43.61376949,3.89816495,0,S5425
369,09205,Colverts,43.61370748,3.89810139,0,S5425
S5377,5377,Antennes,43.64474403,3.84199189,1,
48,02127,Antennes,43.64474403,3.84199189,0,S5377
57,02205,Antennes,43.64467752,3.8422501,0,S5377
S5478,5478,Georges Danton,43.59964296,3.84327755,1,
120,04106,Georges Danton,43.59964296,3.84327755,0,S5478
162,04235,Georges Danton,43.59946045,3.84282743,0,S5478
S5193,5193,Marcel Dassault,43.62214631,3.91685717,1,
1106,37101,Marcel Dassault,43.62214631,3.91685717,0,S5193
1107,37202,Marcel Dassault,43.62211863,3.9169059,0,S5193
S5287,5287,De Bocaud,43.65956365,3.903789,1,
684,22114,De Bocaud,43.65956365,3.903789,0,S5287
710,22208,De Bocaud,43.6596717,3.90439873,0,S5287
S5185,5185,Décurions,43.63558322,3.909035,1,
1018,35117,Décurions,43.63558322,3.909035,0,S5185
1029,35217,Décurions,43.6356641,3.90903722,0,S5185
S5437,5437,Demeter,43.58302717,3.87227097,1,
506,12131,Demeter,43.58302717,3.87227097,0,S5437
524,12228,Demeter,43.58349568,3.87219699,0,S5437
S5636,5636,Saint-Denis,43.6050374,3.87453269,1,
6,00107,Saint-Denis,43.6050374,3.87453269,0,S5636
43,01235,Saint-Denis,43.60601119,3.87306199,0,S5636
1260,43123,Saint-Denis,43.60566904,3.8737332,0,S5636
1287,43235,Saint-Denis,43.6059624,3.87333285,0,S5636
S5438,5438,Descartes,43.59668356,3.88353525,1,
518,12211,Descartes,43.59668356,3.88353525,0,S5438
S5783,5783,Devèzes,43.66277189,3.97017937,1,
647,21110,Devèzes,43.66277189,3.97017937,0,S5783
659,21207,Devèzes,43.66273819,3.9700298,0,S5783
S5356,5356,Distillerie,43.6752964,3.86732248,1,
740,23114,Distillerie,43.6752964,3.86732248,0,S5356
764,23214,Distillerie,43.67510838,3.86726789,0,S5356
S5440,5440,Doria,43.61249358,3.86792852,1,
289,07216,Doria,43.61249358,3.86792852,0,S5440
S5378,5378,Antigone,43.60858596,3.88666595,1,
1149,41139,Antigone,43.60858596,3.88666595,0,S5378
1168,41217,Antigone,43.60860446,3.88662934,0,S5378
S5814,5814,Pierre Doumergue,43.64944983,3.79438941,1,
1330,24126,Pierre Doumergue,43.64944983,3.79438941,0,S5814
1331,24226,Pierre Doumergue,43.64910899,3.79499972,0,S5814
S5298,5298,Le Pontil,43.66218792,3.92482631,1,
704,22202,Le Pontil,43.66218792,3.92482631,0,S5298
S5780,5780,Albert Dubout,43.66238819,3.97475036,1,
652,21120,Albert Dubout,43.66238819,3.97475036,0,S5780
670,21223,Albert Dubout,43.66248647,3.97479034,0,S5780
S5707,5707,Ducque,43.69719162,3.86766222,1,
753,23131,Ducque,43.69719162,3.86766222,0,S5707
778,23231,Ducque,43.69727763,3.86793713,0,S5707
S5441,5441,Du Guesclin,43.60711561,3.88324865,1,
1148,41138,Du Guesclin,43.60711561,3.88324865,0,S5441
1169,41218,Du Guesclin,43.60712513,3.88321179,0,S5441
S5679,5679,Yves du Manoir,43.59143267,3.84863901,1,
426,10157,Yves du Manoir,43.59143267,3.84863901,0,S5679
464,10257,Yves du Manoir,43.59143733,3.8483052,0,S5679
S5492,5492,Henri Dunant,43.62688035,3.8689702,1,
400,10110,Henri Dunant,43.62688035,3.8689702,0,S5492
435,10210,Henri Dunant,43.62679772,3.86909174,0,S5492
S5549,5549,Marie Durand,43.61831954,3.898079,1,
351,09125,Marie Durand,43.61831954,3.898079,0,S5549
367,09203,Marie Durand,43.61836733,3.89788232,0,S5549
S5258,5258,École La Gardiole,43.55755748,3.78251672,1,
985,33106,École La Gardiole,43.55755748,3.78251672,0,S5258
996,33204,École La Gardiole,43.55724628,3.78226164,0,S5258
S5262,5262,Les Écoles,43.5494841,3.77722081,1,
987,33108,Les Écoles,43.5494841,3.77722081,0,S5262
994,33202,Les Écoles,43.54948723,3.77698608,0,S5262
S5380,5380,Apollo,43.62189049,3.90849714,1,
361,09145,Apollo,43.62189049,3.90849714,0,S5380
1334,09142,Apollo,43.62194423,3.90912973,0,S5380
S5288,5288,Écureuil,43.6628273,3.90997135,1,
700,22165,Écureuil,43.6628273,3.90997135,0,S5288
724,22262,Écureuil,43.66351837,3.90943314,0,S5288
S5454,5454,Évariste Galois,43.60926918,3.91218312,1,
357,09139,Évariste Galois,43.60926918,3.91218312,0,S5454
512,12205,Évariste Galois,43.60902599,3.91283212,0,S5454
S5306,5306,Églantiers,43.60787464,3.81282583,1,
817,25104,Églantiers,43.60787464,3.81282583,0,S5306
843,25214,Églantiers,43.60780173,3.81289817,0,S5306
S5488,5488,Gustave Eiffel,43.60925514,3.83274287,1,
265,07127,Gustave Eiffel,43.60925514,3.83274287,0,S5488
278,07204,Gustave Eiffel,43.6087781,3.83343556,0,S5488
S5370,5370,Albert Einstein,43.61314613,3.93713481,1,
501,12118,Albert Einstein,43.61314613,3.93713481,0,S5370
510,12203,Albert Einstein,43.61322865,3.93702577,0,S5370
S5637,5637,Saint-Éloi,43.62629784,3.86566267,1,
411,10136,Saint-Éloi,43.62629784,3.86566267,0,S5637
443,10223,Saint-Éloi,43.62637868,3.86693952,0,S5637
528,13001,Saint-Éloi,43.62701053,3.86675844,0,S5637
1140,41121,Saint-Éloi,43.62698962,3.86569357,0,S5637
1177,41235,Saint-Éloi,43.62700724,3.86571879,0,S5637
1342,22228,Saint-Éloi,43.62701053,3.86675844,0,S5637
S5444,5444,Érables,43.61499526,3.85690929,1,
344,09115,Érables,43.61499526,3.85690929,0,S5444
377,09213,Érables,43.6149116,3.85710503,0,S5444
S5445,5445,Ernest Renan,43.61545541,3.88531808,1,
310,08110,Ernest Renan,43.61545541,3.88531808,0,S5445
333,08214,Ernest Renan,43.61543885,3.88521865,0,S5445
S5446,5446,Espérance,43.6141125,3.84998173,1,
341,09112,Espérance,43.6141125,3.84998173,0,S5446
380,09216,Espérance,43.61436481,3.84929553,0,S5446
S5447,5447,Estanove,43.59773093,3.8482367,1,
211,06102,Estanove,43.59773093,3.8482367,0,S5447
240,06220,Estanove,43.59792915,3.84820483,0,S5447
S5365,5365,Quatre Chemins,43.66508274,3.84625591,1,
735,23109,Quatre Chemins,43.66508274,3.84625591,0,S5365
769,23219,Quatre Chemins,43.66498975,3.8458324,0,S5365
S5381,5381,Apothicaires,43.64160554,3.83493988,1,
87,03139,Apothicaires,43.64160554,3.83493988,0,S5381
117,03232,Apothicaires,43.64163771,3.83521306,0,S5381
S5448,5448,Estragon,43.61868972,3.88796719,1,
312,08112,Estragon,43.61868972,3.88796719,0,S5448
331,08212,Estragon,43.61859389,3.88775423,0,S5448
S5449,5449,Étoile,43.60522646,3.85478132,1,
259,07120,Étoile,43.60522646,3.85478132,0,S5449
284,07211,Étoile,43.60514524,3.8548039,0,S5449
S5452,5452,Eurêka,43.6180003,3.91265907,1,
503,12124,Eurêka,43.6180003,3.91265907,0,S5452
522,12222,Eurêka,43.61788672,3.91243321,0,S5452
S5304,5304,Allée de l'Europe,43.61394359,3.8101122,1,
829,25128,Allée de l'Europe,43.61394359,3.8101122,0,S5304
850,25228,Allée de l'Europe,43.61380829,3.81014582,0,S5304
S5453,5453,Euromédecine,43.6388125,3.82757585,1,
54,02202,Euromédecine,43.6388125,3.82757585,0,S5453
794,24122,Euromédecine,43.63968364,3.82829178,0,S5453
807,24211,Euromédecine,43.63895073,3.82928765,0,S5453
1134,41109,Euromédecine,43.63897273,3.82769143,0,S5453
1183,41247,Euromédecine,43.63899986,3.82767977,0,S5453
S5606,5606,Place de l'Europe,43.60829665,3.89429146,1,
365,09149,Place de l'Europe,43.60829665,3.89429146,0,S5606
386,09232,Place de l'Europe,43.60747153,3.89415761,0,S5606
573,18124,Place de l'Europe,43.60818125,3.89418934,0,S5606
1151,41143,Place de l'Europe,43.60718664,3.89396427,0,S5606
1166,41213,Place de l'Europe,43.60730399,3.89393036,0,S5606
S5687,5687,Parc Expo,43.57329292,3.94453789,1,
886,28125,Parc Expo,43.57329292,3.94453789,0,S5687
896,28225,Parc Expo,43.57336901,3.9448615,0,S5687
1271,43153,Parc Expo,43.5729914,3.94546909,0,S5687
1276,43205,Parc Expo,43.57298131,3.94554299,0,S5687
S5461,5461,Foyer des Aubes,43.61845915,3.89463048,1,
315,08118,Foyer des Aubes,43.61845915,3.89463048,0,S5461
327,08206,Foyer des Aubes,43.61850051,3.89487909,0,S5461
S5586,5586,Paul Fajon,43.59511715,3.83775308,1,
132,04139,Paul Fajon,43.59511715,3.83775308,0,S5586
167,04246,Paul Fajon,43.59543749,3.83734096,0,S5586
542,15115,Paul Fajon,43.59489907,3.83792051,0,S5586
1116,38109,Paul Fajon,43.59635128,3.83691967,0,S5586
1125,38209,Paul Fajon,43.59629547,3.83705427,0,S5586
S5347,5347,Mas la Farouch,43.58710472,3.80256894,1,
1112,38105,Mas la Farouch,43.58710472,3.80256894,0,S5347
1121,38205,Mas la Farouch,43.58702519,3.80246797,0,S5347
S5351,5351,Aqueduc,43.65368498,3.85707302,1,
730,23104,Aqueduc,43.65368498,3.85707302,0,S5351
774,23224,Aqueduc,43.65357732,3.85705777,0,S5351
S5465,5465,Frédéric Bazille,43.60271407,3.88049457,1,
547,16206,Frédéric Bazille,43.60271407,3.88049457,0,S5465
S5463,5463,François Dezeuze,43.60868009,3.84566856,1,
261,07122,François Dezeuze,43.60868009,3.84566856,0,S5463
282,07209,François Dezeuze,43.60859595,3.84654473,0,S5463
S5221,5221,Pigeonniers,43.65353816,3.88393692,1,
677,22106,Pigeonniers,43.65353816,3.88393692,0,S5221
715,22215,Pigeonniers,43.65372275,3.88171324,0,S5221
S5466,5466,Frédéric Fabrège,43.59732207,3.88665724,1,
69,03110,Frédéric Fabrège,43.59732207,3.88665724,0,S5466
104,03218,Frédéric Fabrège,43.59736984,3.88646062,0,S5466
S5457,5457,Figairasse,43.60719323,3.85042938,1,
260,07121,Figairasse,43.60719323,3.85042938,0,S5457
283,07210,Figairasse,43.60704772,3.85054923,0,S5457
S5458,5458,Figuerolles,43.60645022,3.86427783,1,
156,04227,Figuerolles,43.60645022,3.86427783,0,S5458
543,15216,Figuerolles,43.60640267,3.86446213,0,S5458
S5407,5407,Charles Flahault,43.61841219,3.86641673,1,
186,05140,Charles Flahault,43.61841219,3.86641673,0,S5407
S5358,5358,Font du Noyer,43.66588353,3.85264251,1,
736,23110,Font du Noyer,43.66588353,3.85264251,0,S5358
768,23218,Font du Noyer,43.66597375,3.85262014,0,S5358
S5787,5787,La Fontaine,43.65790059,3.96291988,1,
655,21123,La Fontaine,43.65790059,3.96291988,0,S5787
673,21226,La Fontaine,43.65777274,3.96305245,0,S5787
S5307,5307,Fontcaude,43.63211696,3.80176897,1,
835,25201,Fontcaude,43.63211696,3.80176897,0,S5307
849,25226,Fontcaude,43.63235842,3.8018618,0,S5307
S5238,5238,Arbousiers,43.65465188,3.94447723,1,
602,20125,Arbousiers,43.65465188,3.94447723,0,S5238
616,20209,Arbousiers,43.65376644,3.94477421,0,S5238
S5201,5201,Place du Forum,43.64464257,3.92399158,1,
131,04136,Place du Forum,43.64464257,3.92399158,0,S5201
168,04263,Place du Forum,43.64452575,3.92398834,0,S5201
S5375,5375,Anatole France,43.60556851,3.87637791,1,
44,01236,Anatole France,43.60556851,3.87637791,0,S5375
1381,53201,Anatole France,43.60556851,3.87637791,0,S5375
S5464,5464,Françoise,43.61995681,3.89113229,1,
329,08210,Françoise,43.61995681,3.89113229,0,S5464
537,14110,Françoise,43.61994569,3.89128048,0,S5464
S5708,5708,Frayssinet,43.69596121,3.86247468,1,
747,23121,Frayssinet,43.69596121,3.86247468,0,S5708
757,23206,Frayssinet,43.69667152,3.8624689,0,S5708
S5359,5359,Fontaine des Chênes,43.66251949,3.84698064,1,
734,23108,Fontaine des Chênes,43.66251949,3.84698064,0,S5359
770,23220,Fontaine des Chênes,43.66169652,3.84733036,0,S5359
S5459,5459,Font Couverte,43.59334857,3.85176943,1,
213,06104,Font Couverte,43.59334857,3.85176943,0,S5459
238,06218,Font Couverte,43.59358498,3.85157781,0,S5459
S5460,5460,Font Trouvé,43.62692738,3.84772244,1,
247,07107,Font Trouvé,43.62692738,3.84772244,0,S5460
297,07225,Font Trouvé,43.62703384,3.84782426,0,S5460
S5272,5272,Genêts,43.64579806,3.8098078,1,
783,24105,Genêts,43.64579806,3.8098078,0,S5272
805,24209,Genêts,43.64565372,3.81116583,0,S5272
S5511,5511,La Gaillarde,43.61625138,3.85772225,1,
88,03140,La Gaillarde,43.61625138,3.85772225,0,S5511
116,03231,La Gaillarde,43.61628292,3.85867584,0,S5511
S5468,5468,Galéra,43.63658968,3.83620694,1,
792,24118,Galéra,43.63658968,3.83620694,0,S5468
809,24218,Galéra,43.63650812,3.83625431,0,S5468
S5527,5527,Les Arceaux,43.60989569,3.8621925,1,
1258,43119,Les Arceaux,43.60989569,3.8621925,0,S5527
1289,43239,Les Arceaux,43.60997936,3.86199679,0,S5527
S5189,5189,La Galine,43.63145689,3.90903276,1,
1213,42155,La Galine,43.63145689,3.90903276,0,S5189
1225,42215,La Galine,43.63148403,3.90902113,0,S5189
S5632,5632,Route de Ganges,43.64295328,3.84534892,1,
47,02126,Route de Ganges,43.64295328,3.84534892,0,S5632
58,02206,Route de Ganges,43.64284785,3.84517283,0,S5632
S5471,5471,Gardioles,43.62507703,3.85082917,1,
248,07108,Gardioles,43.62507703,3.85082917,0,S5471
295,07223,Gardioles,43.62471011,3.85199508,0,S5471
S5472,5472,Gare Saint-Roch,43.60501613,3.87918361,1,
1,00017,Gare Saint-Roch,43.60501613,3.87918361,0,S5472
1147,41135,Gare Saint-Roch,43.60573942,3.88015572,0,S5472
1170,41221,Gare Saint-Roch,43.60576602,3.88018118,0,S5472
1262,43127,Gare Saint-Roch,43.60535108,3.87965038,0,S5472
1285,43231,Gare Saint-Roch,43.60524342,3.8796351,0,S5472
S5473,5473,Garigliano,43.61879646,3.89742384,1,
316,08119,Garigliano,43.61879646,3.89742384,0,S5473
326,08205,Garigliano,43.61861043,3.89723314,0,S5473
S5270,5270,Garriguettes,43.64648335,3.8036975,1,
785,24107,Garriguettes,43.64648335,3.8036975,0,S5270
803,24207,Garriguettes,43.64650429,3.80546835,0,S5270
S5299,5299,Roland Garros,43.65628664,3.91709657,1,
689,22125,Roland Garros,43.65628664,3.91709657,0,S5299
S5475,5475,Gascogne,43.63432432,3.86002315,1,
220,06117,Gascogne,43.63432432,3.86002315,0,S5475
231,06205,Gascogne,43.63438879,3.85991347,0,S5475
S5565,5565,Moulin de Gasconnet,43.63392174,3.87450612,1,
476,11119,Moulin de Gasconnet,43.63392174,3.87450612,0,S5565
484,11204,Moulin de Gasconnet,43.633831,3.87456556,0,S5565
S5792,5792,Paul Gauguin,43.65507688,3.97549396,1,
651,21119,Paul Gauguin,43.65507688,3.97549396,0,S5792
1341,21124,Paul Gauguin,43.6556696,3.97553574,0,S5792
S5442,5442,École d'Architecture,43.63772613,3.85912367,1,
222,06119,École d'Architecture,43.63772613,3.85912367,0,S5442
230,06204,École d'Architecture,43.63740325,3.8597092,0,S5442
S5469,5469,Gambetta,43.60665673,3.87191645,1,
7,01104,Gambetta,43.60665673,3.87191645,0,S5469
42,01234,Gambetta,43.60726083,3.87052234,0,S5469
S5476,5476,Gémeaux,43.63324398,3.8226282,1,
12,01124,Gémeaux,43.63324398,3.8226282,0,S5476
37,01213,Gémeaux,43.63193705,3.82222289,0,S5476
S5658,5658,Sophie Germain,43.6050392,3.83532931,1,
271,07161,Sophie Germain,43.6050392,3.83532931,0,S5658
305,07263,Sophie Germain,43.60507275,3.83550338,0,S5658
S5167,5167,Le Ginestet,43.7218211,4.00675552,1,
1304,27123,Le Ginestet,43.7218211,4.00675552,0,S5167
1312,27223,Le Ginestet,43.72198286,4.00676026,0,S5167
S5481,5481,Glycines,43.61188628,3.86382934,1,
347,09118,Glycines,43.61188628,3.86382934,0,S5481
374,09210,Glycines,43.61200302,3.86320146,0,S5481
S5482,5482,Goélands,43.61614151,3.90322868,1,
406,10122,Goélands,43.61614151,3.90322868,0,S5482
446,10230,Goélands,43.61657374,3.90317867,0,S5482
S5159,5159,Golf,43.65202196,4.00481238,1,
908,29120,Golf,43.65202196,4.00481238,0,S5159
S5483,5483,Gouara,43.60318779,3.86231028,1,
257,07118,Gouara,43.60318779,3.86231028,0,S5483
286,07213,Gouara,43.60303843,3.86270214,0,S5483
S5790,5790,Parc Gouneaud,43.65450715,3.96499005,1,
643,21106,Parc Gouneaud,43.65450715,3.96499005,0,S5790
664,21212,Parc Gouneaud,43.65422474,3.96404096,0,S5790
S5274,5274,Le Pradas,43.66085431,3.79198123,1,
798,24201,Le Pradas,43.66085431,3.79198123,0,S5274
S5819,5819,Le Pradas,43.66085431,3.79198123,1,
1346,24127,Le Pradas,43.66085431,3.79198123,0,S5819
S5239,5239,Arènes,43.64282932,3.93662999,1,
596,20118,Arènes,43.64282932,3.93662999,0,S5239
624,20217,Arènes,43.64298486,3.93705525,0,S5239
S5269,5269,Grabels Centre,43.64789356,3.79713518,1,
787,24109,Grabels Centre,43.64789356,3.79713518,0,S5269
801,24205,Grabels Centre,43.64735978,3.79871854,0,S5269
S5334,5334,Gramenet,43.5488187,3.89453748,1,
556,17217,Gramenet,43.5488187,3.89453748,0,S5334
S5484,5484,Grammont,43.6141228,3.93065391,1,
508,12201,Grammont,43.6141228,3.93065391,0,S5484
S5522,5522,Le Grand M,43.59094448,3.85461214,1,
214,06105,Le Grand M,43.59094448,3.85461214,0,S5522
237,06216,Le Grand M,43.59061178,3.85525879,0,S5522
452,10244,Le Grand M,43.59110588,3.85464116,0,S5522
S5308,5308,Grand Chêne,43.61997464,3.79758444,1,
826,25120,Grand Chêne,43.61997464,3.79758444,0,S5308
848,25220,Grand Chêne,43.62006317,3.79768569,0,S5308
S5289,5289,Grand Rue,43.65930593,3.91903761,1,
693,22130,Grand Rue,43.65930593,3.91903761,0,S5289
S5485,5485,Grèzes,43.60964016,3.82764339,1,
267,07129,Grèzes,43.60964016,3.82764339,0,S5485
276,07202,Grèzes,43.60972832,3.82776941,0,S5485
S5827,5827,Gare Saint-Roch (Pont de Sète),43.60410466,3.87816933,1,
4,00021,Gare Saint-Roch (Pont de Sète),43.60410466,3.87816933,0,S5827
1406,00011,Gare Saint-Roch (Pont de Sète),43.60357447,3.87941684,0,S5827
S5474,5474,Garosud (Jeune Parque),43.58101093,3.8692861,1,
180,05131,Garosud (Jeune Parque),43.58101093,3.8692861,0,S5474
181,05132,Garosud (Jeune Parque),43.58062558,3.86920158,0,S5474
466,10260,Garosud (Jeune Parque),43.58100457,3.86910045,0,S5474
S5510,5510,Jules Guesde,43.61147346,3.84648469,1,
1256,43115,Jules Guesde,43.61147346,3.84648469,0,S5510
1291,43243,Jules Guesde,43.61150733,3.84663406,0,S5510
S5551,5551,Mas Argelliers,43.58680916,3.88945149,1,
65,03106,Mas Argelliers,43.58680916,3.88945149,0,S5551
108,03222,Mas Argelliers,43.58651777,3.88908493,0,S5551
S5639,5639,Saint-Guilhem - Courreau,43.60797056,3.8737209,1,
1432,44104,Saint-Guilhem - Courreau,43.60797056,3.8737209,0,S5639
1438,44204,Saint-Guilhem - Courreau,43.60794431,3.87367071,0,S5639
S5489,5489,Halles de la Paillade,43.62746924,3.81762668,1,
22,01137,Halles de la Paillade,43.62746924,3.81762668,0,S5489
45,01240,Halles de la Paillade,43.62782039,3.81758628,0,S5489
1131,41103,Halles de la Paillade,43.62756979,3.81750553,0,S5489
1186,41253,Halles de la Paillade,43.62757029,3.81746842,0,S5489
S5260,5260,Le Hameau,43.54702667,3.77342676,1,
988,33109,Le Hameau,43.54702667,3.77342676,0,S5260
S5263,5263,Les Hauts,43.55855755,3.79439588,1,
981,33102,Les Hauts,43.55855755,3.79439588,0,S5263
1000,33208,Les Hauts,43.55843241,3.79434325,0,S5263
S5498,5498,Hôtel du Département,43.62183576,3.83503997,1,
268,07132,Hôtel du Département,43.62183576,3.83503997,0,S5498
1253,43109,Hôtel du Département,43.6218017,3.83490296,0,S5498
1294,43249,Hôtel du Département,43.62202414,3.83506966,0,S5498
S5491,5491,Hélios,43.60099589,3.88560649,1,
334,08218,Hélios,43.60099589,3.88560649,0,S5491
S5493,5493,Henri Marès,43.62019472,3.85410263,1,
78,03125,Henri Marès,43.62019472,3.85410263,0,S5493
95,03206,Henri Marès,43.62011936,3.85434811,0,S5493
S5490,5490,Hauts de Massane,43.63616612,3.82259285,1,
13,01125,Hauts de Massane,43.63616612,3.82259285,0,S5490
36,01212,Hauts de Massane,43.63612763,3.82277751,0,S5490
1133,41107,Hauts de Massane,43.63637043,3.82277146,0,S5490
1184,41249,Hauts de Massane,43.63637111,3.82272196,0,S5490
S5497,5497,Hortus,43.64322282,3.86012441,1,
182,05133,Hortus,43.64322282,3.86012441,0,S5497
200,05230,Hortus,43.64297537,3.85982071,0,S5497
S5430,5430,Corse,43.64022021,3.81077794,1,
18,01132,Corse,43.64022021,3.81077794,0,S5430
29,01204,Corse,43.64067027,3.81139611,0,S5430
S5170,5170,Aube Rouge,43.63939147,3.92405603,1,
1030,35221,Aube Rouge,43.63939147,3.92405603,0,S5170
1216,42163,Aube Rouge,43.6385425,3.92493605,0,S5170
1222,42207,Aube Rouge,43.63853405,3.92489868,0,S5170
1360,35114,Aube Rouge,43.63939147,3.92405603,0,S5170
S5494,5494,Henri René,43.60314289,3.88194115,1,
322,08132,Henri René,43.60314289,3.88194115,0,S5494
S5309,5309,Hauts de Fontcaude,43.63217926,3.79849076,1,
825,25118,Hauts de Fontcaude,43.63217926,3.79849076,0,S5309
847,25219,Hauts de Fontcaude,43.63217191,3.79903514,0,S5309
S5310,5310,Hôtel de Ville,43.61395626,3.80521293,1,
830,25129,Hôtel de Ville,43.61395626,3.80521293,0,S5310
851,25229,Hôtel de Ville,43.61387538,3.80521085,0,S5310
S5479,5479,Georges Frêche - Hôtel de Ville,43.59931674,3.89486304,1,
1267,43141,Georges Frêche - Hôtel de Ville,43.59931674,3.89486304,0,S5479
1280,43217,Georges Frêche - Hôtel de Ville,43.59935286,3.89485166,0,S5479
S5187,5187,Idate,43.6517115,3.89720951,1,
699,22163,Idate,43.6517115,3.89720951,0,S5187
725,22264,Idate,43.65152713,3.89752638,0,S5187
S5277,5277,L'Île Bleue,43.64835484,3.83183625,1,
791,24117,L'Île Bleue,43.64835484,3.83183625,0,S5277
808,24215,L'Île Bleue,43.64846671,3.83219821,0,S5277
S5499,5499,Industrie,43.58456565,3.88164905,1,
62,03103,Industrie,43.58456565,3.88164905,0,S5499
111,03225,Industrie,43.58475347,3.88171596,0,S5499
S5500,5500,Iris,43.59903922,3.88539263,1,
70,03111,Iris,43.59903922,3.88539263,0,S5500
103,03217,Iris,43.59876083,3.88537272,0,S5500
S5501,5501,Irissou,43.59396374,3.85277523,1,
555,17135,Irissou,43.59396374,3.85277523,0,S5501
563,17235,Irissou,43.59402439,3.85293763,0,S5501
S5608,5608,Place d'Italie,43.64178849,3.81838185,1,
16,01130,Place d'Italie,43.64178849,3.81838185,0,S5608
31,01206,Place d'Italie,43.64186072,3.81835897,0,S5608
S5383,5383,Astruc,43.61019017,3.85467817,1,
1257,43117,Astruc,43.61019017,3.85467817,0,S5383
1290,43241,Astruc,43.61024131,3.85487748,0,S5383
S5283,5283,Cimetière Jacou,43.6591495,3.90941181,1,
685,22115,Cimetière Jacou,43.6591495,3.90941181,0,S5283
709,22207,Cimetière Jacou,43.65944982,3.90792176,0,S5283
S5286,5286,Collège Pierre Mendès France,43.66725131,3.91238447,1,
695,22135,Collège Pierre Mendès France,43.66725131,3.91238447,0,S5286
719,22222,Collège Pierre Mendès France,43.66718967,3.91229607,0,S5286
S5290,5290,Hélios,43.66146624,3.919469,1,
706,22204,Hélios,43.66146624,3.919469,0,S5290
S5315,5315,Le Martinet,43.63408371,3.80324279,1,
827,25125,Le Martinet,43.63408371,3.80324279,0,S5315
1349,25134,Le Martinet,43.63408371,3.80324279,0,S5315
S5296,5296,Parc,43.66131201,3.90907514,1,
701,22166,Parc,43.66131201,3.90907514,0,S5296
723,22261,Parc,43.66156812,3.90939178,0,S5296
S5302,5302,Thym,43.65915242,3.91723784,1,
692,22129,Thym,43.65915242,3.91723784,0,S5302
S5303,5303,Tournesol,43.66039625,3.91578631,1,
707,22205,Tournesol,43.66039625,3.91578631,0,S5303
S5291,5291,Jacou,43.65470293,3.91288003,1,
696,22136,Jacou,43.65470293,3.91288003,0,S5291
721,22237,Jacou,43.65469394,3.91287978,0,S5291
1219,42169,Jacou,43.65460408,3.9128773,0,S5291
1343,22236,Jacou,43.65470293,3.91288003,0,S5291
S5285,5285,Coeur de Ville,43.65943735,3.91310984,1,
708,22206,Coeur de Ville,43.65943735,3.91310984,0,S5285
S5487,5487,Guillaume Janvier,43.59764541,3.86456193,1,
217,06109,Guillaume Janvier,43.59764541,3.86456193,0,S5487
234,06212,Guillaume Janvier,43.59709857,3.86381753,0,S5487
S5528,5528,Les Aubes,43.61367884,3.88884568,1,
536,14109,Les Aubes,43.61367884,3.88884568,0,S5528
539,14209,Les Aubes,43.61358158,3.88873168,0,S5528
1205,42139,Les Aubes,43.61397118,3.88851955,0,S5528
1233,42231,Les Aubes,43.61395481,3.88840775,0,S5528
S5503,5503,Jasse de Maurin,43.57953896,3.86276715,1,
412,10138,Jasse de Maurin,43.57953896,3.86276715,0,S5503
462,10254,Jasse de Maurin,43.57975306,3.86288415,0,S5503
S5750,5750,Jasses,43.57061564,3.82775057,1,
856,26101,Jasses,43.57061564,3.82775057,0,S5750
867,26208,Jasses,43.57043502,3.82846293,0,S5750
S5188,5188,Jean Jaurès,43.6399519,3.89414004,1,
676,22103,Jean Jaurès,43.6399519,3.89414004,0,S5188
716,22218,Jean Jaurès,43.64002593,3.89399351,0,S5188
S5504,5504,Jean Bart,43.62559219,3.83772497,1,
270,07137,Jean Bart,43.62559219,3.83772497,0,S5504
S5259,5259,Jeu de Ballon,43.55218755,3.77604064,1,
986,33107,Jeu de Ballon,43.55218755,3.77604064,0,S5259
995,33203,Jeu de Ballon,43.55218995,3.77653507,0,S5259
S5539,5539,Lycée Jean Monnet,43.62417634,3.83480438,1,
302,07237,Lycée Jean Monnet,43.62417634,3.83480438,0,S5539
384,09226,Lycée Jean Monnet,43.62428023,3.83509173,0,S5539
S5292,5292,Jean Joubert,43.66728195,3.91460216,1,
1126,39101,Jean Joubert,43.66728195,3.91460216,0,S5292
1128,39201,Jean Joubert,43.66731844,3.91456601,0,S5292
S5297,5297,Piscine,43.66057516,3.92629218,1,
703,22201,Piscine,43.66057516,3.92629218,0,S5297
S5379,5379,Antoine-Laurent de Jussieu,43.637276,3.88011704,1,
478,11121,Antoine-Laurent de Jussieu,43.637276,3.88011704,0,S5379
482,11202,Antoine-Laurent de Jussieu,43.63724199,3.87997996,0,S5379
S5311,5311,Juvignac,43.61748508,3.81014169,1,
1249,43101,Juvignac,43.61748508,3.81014169,0,S5311
S5743,5743,Allée du Bois,43.58214127,3.82439098,1,
587,20102,Allée du Bois,43.58214127,3.82439098,0,S5743
633,20235,Allée du Bois,43.58213024,3.82453909,0,S5743
S5673,5673,Vincent Auriol,43.64796667,3.86415079,1,
726,22266,Vincent Auriol,43.64796667,3.86415079,0,S5673
750,23124,Vincent Auriol,43.65025783,3.86678729,0,S5673
S5324,5324,Valat de la Fosse,43.61052657,3.80555778,1,
820,25107,Valat de la Fosse,43.61052657,3.80555778,0,S5324
840,25211,Valat de la Fosse,43.61068337,3.80526488,0,S5324
S5399,5399,Castelle,43.58665136,3.87217048,1,
170,05102,Castelle,43.58665136,3.87217048,0,S5399
199,05228,Castelle,43.58661857,3.871947,0,S5399
S5314,5314,Le Labournas,43.61454032,3.80058814,1,
831,25130,Le Labournas,43.61454032,3.80058814,0,S5314
852,25230,Le Labournas,43.61442216,3.8006841,0,S5314
S5190,5190,La Pompignane (Les Lacs),43.62581357,3.90080851,1,
318,08121,La Pompignane (Les Lacs),43.62581357,3.90080851,0,S5190
324,08203,La Pompignane (Les Lacs),43.62510754,3.89989814,0,S5190
418,10149,La Pompignane (Les Lacs),43.62512949,3.90024525,0,S5190
S5516,5516,Lagoya,43.6121904,3.90602788,1,
415,10146,Lagoya,43.6121904,3.90602788,0,S5516
457,10249,Lagoya,43.61212839,3.90596432,0,S5516
S5776,5776,Lahntal,43.71631681,4.00454903,1,
1305,27124,Lahntal,43.71631681,4.00454903,0,S5776
1313,27224,Lahntal,43.71614146,4.00425881,0,S5776
S5295,5295,Lucien Lambert,43.65694902,3.91236009,1,
1127,39102,Lucien Lambert,43.65694902,3.91236009,0,S5295
1129,39202,Lucien Lambert,43.65694992,3.9122982,0,S5295
S5513,5513,La Pile,43.61731833,3.86811974,1,
74,03119,La Pile,43.61731833,3.86811974,0,S5513
99,03211,La Pile,43.61712466,3.86782995,0,S5513
S5753,5753,La Roque,43.56987546,3.83512448,1,
857,26102,La Roque,43.56987546,3.83512448,0,S5753
866,26207,La Roque,43.56988633,3.83498877,0,S5753
S5517,5517,Las Cazes,43.61610331,3.84711438,1,
340,09111,Las Cazes,43.61610331,3.84711438,0,S5517
381,09217,Las Cazes,43.6165324,3.84664317,0,S5517
S5384,5384,Avenue de l'Agriculture,43.61210455,3.86110086,1,
346,09117,Avenue de l'Agriculture,43.61210455,3.86110086,0,S5384
375,09211,Avenue de l'Agriculture,43.61218682,3.86100407,0,S5384
S5515,5515,La Source,43.62103702,3.85685975,1,
250,07110,La Source,43.62103702,3.85685975,0,S5515
293,07221,La Source,43.62166007,3.85602249,0,S5515
S5518,5518,Las Rébès,43.62080213,3.84924329,1,
80,03129,Las Rébès,43.62080213,3.84924329,0,S5518
93,03204,Las Rébès,43.62073076,3.84920428,0,S5518
S5329,5329,Chemin de Lattes,43.57239962,3.89628059,1,
549,17103,Chemin de Lattes,43.57239962,3.89628059,0,S5329
558,17219,Chemin de Lattes,43.5730756,3.89678124,0,S5329
S5333,5333,Entreprises,43.56419418,3.87923181,1,
572,18123,Entreprises,43.56419418,3.87923181,0,S5333
578,18219,Entreprises,43.56406696,3.87932727,0,S5333
872,27104,Entreprises,43.56419418,3.87923181,0,S5333
876,27210,Entreprises,43.56406696,3.87932727,0,S5333
S5335,5335,Mairie,43.56866916,3.90435087,1,
566,18103,Mairie,43.56866916,3.90435087,0,S5335
575,18206,Mairie,43.56847559,3.90406121,0,S5335
S5327,5327,Lattes Centre,43.57050335,3.904327,1,
574,18125,Lattes Centre,43.57050335,3.904327,0,S5327
1298,43259,Lattes Centre,43.57074924,3.90534756,0,S5327
1337,18228,Lattes Centre,43.57050335,3.904327,0,S5327
S5746,5746,Château du Terral,43.5829772,3.83091729,1,
586,20101,Château du Terral,43.5829772,3.83091729,0,S5746
634,20236,Château du Terral,43.58293955,3.83103997,0,S5746
S5752,5752,La Lauze,43.56176209,3.84518423,1,
860,26108,La Lauze,43.56176209,3.84518423,0,S5752
1340,20243,La Lauze,43.56176209,3.84518423,0,S5752
S5520,5520,Lavalette,43.63773484,3.86933577,1,
187,05161,Lavalette,43.63773484,3.86933577,0,S5520
209,05284,Lavalette,43.63755757,3.86915772,0,S5520
S5521,5521,Lavandin,43.60031528,3.85178101,1,
551,17131,Lavandin,43.60031528,3.85178101,0,S5521
1336,17231,Lavandin,43.60031528,3.85178101,0,S5521
S5267,5267,Avenue de Rome,43.64324069,3.82392824,1,
782,24104,Avenue de Rome,43.64324069,3.82392824,0,S5267
806,24210,Avenue de Rome,43.64314201,3.82391329,0,S5267
S5642,5642,Saint-Lazare,43.6273237,3.88895666,1,
420,10151,Saint-Lazare,43.6273237,3.88895666,0,S5642
453,10245,Saint-Lazare,43.62710678,3.8890374,0,S5642
1210,42149,Saint-Lazare,43.62661875,3.88859098,0,S5642
1228,42221,Saint-Lazare,43.62664606,3.88856697,0,S5642
S5532,5532,Louis Blanc,43.61474608,3.87833279,1,
1144,41129,Louis Blanc,43.61474608,3.87833279,0,S5532
1173,41227,Louis Blanc,43.61473622,3.87839439,0,S5532
S5524,5524,Léon Blum,43.60926045,3.8904082,1,
387,09234,Léon Blum,43.60926045,3.8904082,0,S5524
1150,41141,Léon Blum,43.60891336,3.8901637,0,S5524
1167,41215,Léon Blum,43.60893996,3.89018916,0,S5524
1427,21125,Léon Blum,43.60984135,3.8906467,0,S5524
S5246,5246,Jean Jaurès,43.65723724,3.94291556,1,
603,20126,Jean Jaurès,43.65723724,3.94291556,0,S5246
615,20208,Jean Jaurès,43.65661847,3.94281147,0,S5246
S5816,5816,Méditerranée,43.64575654,3.93443412,1,
1352,30108,Méditerranée,43.64575654,3.93443412,0,S5816
1357,30208,Méditerranée,43.64587245,3.93449926,0,S5816
S5160,5160,Le Grès,43.66250114,4.00911868,1,
902,29107,Le Grès,43.66250114,4.00911868,0,S5160
919,29206,Le Grès,43.66252274,4.0100481,0,S5160
S5161,5161,Le Levant,43.6617039,4.01764007,1,
904,29109,Le Levant,43.6617039,4.01764007,0,S5161
S5275,5275,Le Rio,43.64666361,3.80631427,1,
784,24106,Le Rio,43.64666361,3.80631427,0,S5275
804,24208,Le Rio,43.64629364,3.80774079,0,S5275
S5546,5546,Maréchal Leclerc,43.59433157,3.88519082,1,
494,12106,Maréchal Leclerc,43.59433157,3.88519082,0,S5546
526,12231,Maréchal Leclerc,43.59428876,3.88504124,0,S5546
S5247,5247,Le Crès,43.63897389,3.93410814,1,
639,21101,Le Crès,43.63897389,3.93410814,0,S5247
S5156,5156,Fenouillet,43.66359043,4.02178241,1,
905,29110,Fenouillet,43.66359043,4.02178241,0,S5156
915,29202,Fenouillet,43.66467475,4.02143051,0,S5156
S5217,5217,Leenhardt,43.65680355,3.88505316,1,
714,22213,Leenhardt,43.65680355,3.88505316,0,S5217
S5715,5715,Le Mas,43.72159435,4.03580685,1,
938,31105,Le Mas,43.72159435,4.03580685,0,S5715
944,31205,Le Mas,43.72144469,4.03560404,0,S5715
S5523,5523,Lemasson,43.59371041,3.87327545,1,
1197,42119,Lemasson,43.59371041,3.87327545,0,S5523
1241,42251,Lemasson,43.59373702,3.87330091,0,S5523
S5526,5526,Lepic,43.60139701,3.86307889,1,
256,07117,Lepic,43.60139701,3.86307889,0,S5526
S5533,5533,Louis Lépine,43.61462788,3.91459522,1,
355,09137,Louis Lépine,43.61462788,3.91459522,0,S5533
388,09235,Louis Lépine,43.61470551,3.91482008,0,S5533
S5346,5346,Mas de Lépôt,43.58630411,3.79796036,1,
1114,38107,Mas de Lépôt,43.58630411,3.79796036,0,S5346
1123,38207,Mas de Lépôt,43.58661312,3.79837636,0,S5346
S5168,5168,Le Puits,43.72599359,4.02238725,1,
1307,27216,Le Puits,43.72599359,4.02238725,0,S5168
1350,27125,Le Puits,43.72599359,4.02238725,0,S5168
S5530,5530,Les Pins,43.59094764,3.87348562,1,
172,05104,Les Pins,43.59094764,3.87348562,0,S5530
873,27114,Les Pins,43.59059118,3.87326578,0,S5530
S5455,5455,Fac de Lettres,43.63012027,3.86998537,1,
175,05124,Fac de Lettres,43.63012027,3.86998537,0,S5455
195,05207,Fac de Lettres,43.63043334,3.86946159,0,S5455
S5360,5360,La Grand Font,43.66895475,3.86120767,1,
738,23112,La Grand Font,43.66895475,3.86120767,0,S5360
766,23216,La Grand Font,43.6687722,3.86012532,0,S5360
S5386,5386,Bagatelle,43.59537578,3.8443648,1,
134,04142,Bagatelle,43.59537578,3.8443648,0,S5386
166,04244,Bagatelle,43.59509064,3.84418411,0,S5386
S5186,5186,Georges Pompidou,43.64927111,3.92101273,1,
1218,42167,Georges Pompidou,43.64927111,3.92101273,0,S5186
1220,42203,Georges Pompidou,43.64926267,3.92097535,0,S5186
S5199,5199,Place de la Liberté,43.63315917,3.89576182,1,
674,22101,Place de la Liberté,43.63315917,3.89576182,0,S5199
718,22220,Place de la Liberté,43.63321541,3.89560245,0,S5199
S5361,5361,La Lironde,43.66031034,3.84874247,1,
733,23107,La Lironde,43.66031034,3.84874247,0,S5361
771,23221,La Lironde,43.65993843,3.84898027,0,S5361
S5470,5470,Garcia Lorca,43.59113102,3.89022444,1,
66,03107,Garcia Lorca,43.59113102,3.89022444,0,S5470
107,03221,Garcia Lorca,43.59088136,3.8900816,0,S5470
1433,44105,Garcia Lorca,43.59100621,3.8907776,0,S5470
1434,44106,Garcia Lorca,43.59119999,3.89105497,0,S5470
1435,44201,Garcia Lorca,43.59116334,3.89110345,0,S5470
1439,44205,Garcia Lorca,43.59097872,3.89081396,0,S5470
S5755,5755,Louise Michel,43.58092328,3.83383134,1,
610,20140,Louise Michel,43.58092328,3.83383134,0,S5755
636,20240,Louise Michel,43.58092448,3.83374481,0,S5755
S5294,5294,Lou Pradet,43.66225642,3.92199239,1,
705,22203,Lou Pradet,43.66225642,3.92199239,0,S5294
S5535,5535,Louvain,43.61351392,3.85868866,1,
345,09116,Louvain,43.61351392,3.85868866,0,S5535
376,09212,Louvain,43.61332069,3.8590052,0,S5535
S5534,5534,Louis Ravaz,43.62011324,3.85221959,1,
79,03126,Louis Ravaz,43.62011324,3.85221959,0,S5534
85,03137,Louis Ravaz,43.6197106,3.85144172,0,S5534
94,03205,Louis Ravaz,43.62002424,3.85215536,0,S5534
114,03229,Louis Ravaz,43.61966636,3.85139105,0,S5534
S5536,5536,Lucullus,43.59480439,3.88858032,1,
68,03109,Lucullus,43.59480439,3.88858032,0,S5536
105,03219,Lucullus,43.59470696,3.88847872,0,S5536
S5317,5317,Luminaire,43.60799148,3.81084942,1,
818,25105,Luminaire,43.60799148,3.81084942,0,S5317
842,25213,Luminaire,43.60784534,3.81101885,0,S5317
S5162,5162,Mairie,43.66115255,4.0131905,1,
903,29108,Mairie,43.66115255,4.0131905,0,S5162
918,29205,Mairie,43.66177032,4.01277522,0,S5162
S5585,5585,Patrice Lumumba,43.57884869,3.86454168,1,
422,10153,Patrice Lumumba,43.57884869,3.86454168,0,S5585
450,10242,Patrice Lumumba,43.57896795,3.86437175,0,S5585
S5537,5537,Lycée Frédéric Bazille,43.64555716,3.86225412,1,
190,05202,Lycée Frédéric Bazille,43.64555716,3.86225412,0,S5537
529,13102,Lycée Frédéric Bazille,43.6449008,3.86226134,0,S5537
532,13202,Lycée Frédéric Bazille,43.64478362,3.86228296,0,S5537
S5540,5540,Lycée Jules Ferry,43.60869974,3.84102971,1,
262,07124,Lycée Jules Ferry,43.60869974,3.84102971,0,S5540
281,07207,Lycée Jules Ferry,43.60865567,3.84096669,0,S5540
S5828,5828,Bellevue,43.60757556,3.74143608,1,
1412,42184,Bellevue,43.60757556,3.74143608,0,S5828
1420,42284,Bellevue,43.60752148,3.74144712,0,S5828
S5192,5192,Mairie de Castelnau,43.63300911,3.89744101,1,
128,04125,Mairie de Castelnau,43.63300911,3.89744101,0,S5192
S5829,5829,Chemin des Pins,43.60838041,3.76305622,1,
1410,42181,Chemin des Pins,43.60838041,3.76305622,0,S5829
1418,42281,Chemin des Pins,43.60834791,3.76347604,0,S5829
S5833,5833,Les Clauzes,43.60609533,3.74328004,1,
1411,42183,Les Clauzes,43.60609533,3.74328004,0,S5833
1419,42283,Les Clauzes,43.6061141,3.74321865,0,S5833
S5830,5830,Clos des Pins,43.60293838,3.73925625,1,
1416,42191,Clos des Pins,43.60293838,3.73925625,0,S5830
1424,42291,Clos des Pins,43.60384264,3.73953822,0,S5830
S5348,5348,Camp du Soleil,43.74937791,3.96058183,1,
1064,36156,Camp du Soleil,43.74937791,3.96058183,0,S5348
1104,36259,Camp du Soleil,43.74950298,3.960635,0,S5348
S5545,5545,Marché Gare,43.5838395,3.8859082,1,
63,03104,Marché Gare,43.5838395,3.8859082,0,S5545
110,03224,Marché Gare,43.58380054,3.88611737,0,S5545
S5158,5158,Gaston Baissette,43.6645807,4.01706844,1,
916,29203,Gaston Baissette,43.6645807,4.01706844,0,S5158
S5834,5834,Mas de Garenc,43.60854623,3.7379836,1,
1413,42185,Mas de Garenc,43.60854623,3.7379836,0,S5834
1421,42285,Mas de Garenc,43.60852778,3.73802026,0,S5834
S5831,5831,Fontaine Romaine,43.6061232,3.73627885,1,
1415,42190,Fontaine Romaine,43.6061232,3.73627885,0,S5831
1423,42290,Fontaine Romaine,43.60614069,3.73631639,0,S5831
S5832,5832,La Rouvière Longue,43.60076944,3.73458912,1,
1414,42188,La Rouvière Longue,43.60076944,3.73458912,0,S5832
1422,42288,La Rouvière Longue,43.60076944,3.73458912,0,S5832
S5839,5839,Montaud Stade,43.75197805,3.95625281,1,
1441,36261,Montaud Stade,43.75197805,3.95625281,0,S5839
S5509,5509,Jeu de Mail des Abbés,43.62021045,3.88409822,1,
1208,42145,Jeu de Mail des Abbés,43.62021045,3.88409822,0,S5509
1230,42225,Jeu de Mail des Abbés,43.62021115,3.88404874,0,S5509
S5581,5581,Parc Malbosc,43.62340226,3.83097263,1,
385,09227,Parc Malbosc,43.62340226,3.83097263,0,S5581
S5544,5544,Malbosc,43.63461858,3.83377874,1,
793,24121,Malbosc,43.63461858,3.83377874,0,S5544
810,24220,Malbosc,43.63460283,3.83361742,0,S5544
1135,41111,Malbosc,43.63459067,3.83319628,0,S5544
1182,41245,Malbosc,43.63460813,3.83323387,0,S5544
S5376,5376,André Malraux,43.6194096,3.90041039,1,
352,09126,André Malraux,43.6194096,3.90041039,0,S5376
366,09202,André Malraux,43.6195016,3.90026442,0,S5376
S5711,5711,Mandarine,43.69293544,3.8621955,1,
745,23119,Mandarine,43.69293544,3.8621955,0,S5711
759,23208,Mandarine,43.69324274,3.86207982,0,S5711
S5336,5336,Manse,43.57001388,3.87835034,1,
871,27103,Manse,43.57001388,3.87835034,0,S5336
877,27211,Manse,43.56992208,3.87848386,0,S5336
S5240,5240,Baléares,43.65129008,3.94383776,1,
601,20124,Baléares,43.65129008,3.94383776,0,S5240
617,20210,Baléares,43.65132823,3.94369026,0,S5240
S5486,5486,Guglielmo Marconi,43.61145173,3.91231755,1,
407,10123,Guglielmo Marconi,43.61145173,3.91231755,0,S5486
445,10229,Guglielmo Marconi,43.61186419,3.91239079,0,S5486
S5318,5318,Marjories,43.60980354,3.80782797,1,
819,25106,Marjories,43.60980354,3.80782797,0,S5318
841,25212,Marjories,43.60970495,3.80714498,0,S5318
S5756,5756,Marquerose,43.58342415,3.82653899,1,
611,20141,Marquerose,43.58342415,3.82653899,0,S5756
637,20241,Marquerose,43.58337905,3.82655018,0,S5756
S5512,5512,La Martelle,43.60738788,3.82669387,1,
275,07201,La Martelle,43.60738788,3.82669387,0,S5512
1377,07131,La Martelle,43.60731769,3.82656832,0,S5512
S5550,5550,Martellière,43.60669999,3.83743887,1,
263,07125,Martellière,43.60669999,3.83743887,0,S5550
280,07206,Martellière,43.60718274,3.83828044,0,S5550
S5643,5643,Saint-Martin,43.59227308,3.88015064,1,
1263,43133,Saint-Martin,43.59227308,3.88015064,0,S5643
1284,43225,Saint-Martin,43.59226304,3.88022457,0,S5643
S5552,5552,Mas de Bagnères,43.58683337,3.85865824,1,
424,10155,Mas de Bagnères,43.58683337,3.85865824,0,S5552
461,10253,Mas de Bagnères,43.5875279,3.85849123,0,S5552
S5553,5553,Mas de Bellevue,43.63649841,3.81276129,1,
20,01134,Mas de Bellevue,43.63649841,3.81276129,0,S5553
27,01202,Mas de Bellevue,43.63710439,3.81249227,0,S5553
S5362,5362,Mas de Gué,43.65728215,3.85185686,1,
731,23105,Mas de Gué,43.65728215,3.85185686,0,S5362
773,23223,Mas de Gué,43.65720231,3.85178045,0,S5362
S5757,5757,Mas de Magret,43.56790266,3.82827322,1,
861,26109,Mas de Magret,43.56790266,3.82827322,0,S5757
870,26211,Mas de Magret,43.56794725,3.82829911,0,S5757
S5171,5171,Balestrier,43.64426981,3.90329491,1,
144,04169,Balestrier,43.64426981,3.90329491,0,S5171
146,04202,Balestrier,43.64421661,3.90324393,0,S5171
S5554,5554,Mas de Merle,43.60450808,3.85728587,1,
258,07119,Mas de Merle,43.60450808,3.85728587,0,S5554
285,07212,Mas de Merle,43.60435062,3.85761569,0,S5554
S5556,5556,Mas Saint-Pierre,43.58211885,3.87987639,1,
61,03102,Mas Saint-Pierre,43.58211885,3.87987639,0,S5556
112,03226,Mas Saint-Pierre,43.58176134,3.88036138,0,S5556
S5249,5249,Maumarin,43.66139279,3.94398604,1,
930,30105,Maumarin,43.66139279,3.94398604,0,S5249
931,30201,Maumarin,43.66144616,3.9440247,0,S5249
S5332,5332,Crédit Agricole,43.55881128,3.87658965,1,
567,18115,Crédit Agricole,43.55881128,3.87658965,0,S5332
875,27201,Crédit Agricole,43.55882027,3.8765899,0,S5332
S5729,5729,Les Mazets,43.6990994,4.01853158,1,
934,31101,Les Mazets,43.6990994,4.01853158,0,S5729
940,31201,Les Mazets,43.69918792,4.01862093,0,S5729
S5352,5352,Baillarguet,43.67771661,3.86718921,1,
741,23115,Baillarguet,43.67771661,3.86718921,0,S5352
763,23213,Baillarguet,43.67731379,3.86706693,0,S5352
S5548,5548,Marie Curie,43.61483955,3.8313054,1,
10,01114,Marie Curie,43.61483955,3.8313054,0,S5548
39,01224,Marie Curie,43.61475174,3.83115463,0,S5548
S5555,5555,Mas Drevon,43.59546744,3.8679175,1,
1196,42117,Mas Drevon,43.59546744,3.8679175,0,S5555
1242,42253,Mas Drevon,43.59548594,3.86788089,0,S5555
S5218,5218,Médiathèque Albert Camus,43.65554491,3.88127967,1,
720,22227,Médiathèque Albert Camus,43.65554491,3.88127967,0,S5218
S5337,5337,Méjean,43.56828951,3.90014937,1,
565,18102,Méjean,43.56828951,3.90014937,0,S5337
S5709,5709,Les Baronnes,43.69367355,3.87231324,1,
749,23123,Les Baronnes,43.69367355,3.87231324,0,S5709
1344,23134,Les Baronnes,43.69367355,3.87231324,0,S5709
S5319,5319,Mélanie,43.63066388,3.79820444,1,
824,25116,Mélanie,43.63066388,3.79820444,0,S5319
836,25202,Mélanie,43.63076307,3.79818222,0,S5319
S5480,5480,Georges Méliès,43.60668445,3.9229616,1,
359,09141,Georges Méliès,43.60668445,3.9229616,0,S5480
392,09241,Georges Méliès,43.60679409,3.92284093,0,S5480
S5506,5506,Jean Mermoz,43.61260256,3.88929896,1,
126,04116,Jean Mermoz,43.61260256,3.88929896,0,S5506
S5788,5788,Meyrargues,43.65373443,3.96914068,1,
898,29101,Meyrargues,43.65373443,3.96914068,0,S5788
923,29212,Meyrargues,43.65386636,3.96814152,0,S5788
S5543,5543,Major Flandre,43.62709926,3.87255266,1,
399,10109,Major Flandre,43.62709926,3.87255266,0,S5543
436,10211,Major Flandre,43.62680754,3.87410415,0,S5543
S5717,5717,Micocoulier,43.66688394,4.02965736,1,
910,29127,Micocoulier,43.66688394,4.02965736,0,S5717
926,29222,Micocoulier,43.66690877,4.02979433,0,S5717
S5559,5559,Millénaire,43.60349097,3.90832491,1,
410,10133,Millénaire,43.60349097,3.90832491,0,S5559
449,10233,Millénaire,43.60320899,3.90917073,0,S5559
1156,41153,Millénaire,43.60288063,3.91011423,0,S5559
1161,41203,Millénaire,43.60290759,3.91011497,0,S5559
S5507,5507,Jean Mirailhet,43.59615613,3.89210512,1,
306,08103,Jean Mirailhet,43.59615613,3.89210512,0,S5507
408,10125,Jean Mirailhet,43.59686016,3.89253247,0,S5507
S5785,5785,Frédéric Mistral,43.6640061,3.9741776,1,
648,21111,Frédéric Mistral,43.6640061,3.9741776,0,S5785
658,21206,Frédéric Mistral,43.66428262,3.97372732,0,S5785
S5560,5560,Mondial 98,43.60261724,3.90410725,1,
1155,41151,Mondial 98,43.60261724,3.90410725,0,S5560
1162,41205,Mondial 98,43.6026442,3.90410799,0,S5560
S5374,5374,Ambroise Paré,43.63801214,3.84769397,1,
46,02125,Ambroise Paré,43.63801214,3.84769397,0,S5374
S5451,5451,Eugène Bataillon,43.6314788,3.86099925,1,
219,06116,Eugène Bataillon,43.6314788,3.86099925,0,S5451
232,06206,Eugène Bataillon,43.63171269,3.86034953,0,S5451
S5200,5200,Place de la Monnaie,43.64415007,3.91031083,1,
141,04166,Place de la Monnaie,43.64415007,3.91031083,0,S5200
149,04205,Place de la Monnaie,43.64428595,3.9102403,0,S5200
S5250,5250,Monteroni d'Arbia,43.66012179,3.93632224,1,
928,30103,Monteroni d'Arbia,43.66012179,3.93632224,0,S5250
932,30203,Monteroni d'Arbia,43.66017589,3.93631138,0,S5250
S5354,5354,Chemin Neuf,43.66707699,3.85856917,1,
737,23111,Chemin Neuf,43.66707699,3.85856917,0,S5354
767,23217,Chemin Neuf,43.66732914,3.85853875,0,S5354
S5562,5562,Montmaur,43.64114707,3.86325036,1,
178,05127,Montmaur,43.64114707,3.86325036,0,S5562
192,05204,Montmaur,43.64042615,3.86401094,0,S5562
S5338,5338,Montouzères,43.56869555,3.88505269,1,
569,18119,Montouzères,43.56869555,3.88505269,0,S5338
580,18223,Montouzères,43.56859037,3.88486439,0,S5338
S5339,5339,Montpellieret,43.55987268,3.8771745,1,
568,18118,Montpellieret,43.55987268,3.8771745,0,S5339
571,18122,Montpellieret,43.55992906,3.87700296,0,S5339
579,18222,Montpellieret,43.55987268,3.8771745,0,S5339
582,18226,Montpellieret,43.55992906,3.87700296,0,S5339
S5654,5654,Samuel Morse,43.60638856,3.91306864,1,
358,09140,Samuel Morse,43.60638856,3.91306864,0,S5654
391,09239,Samuel Morse,43.60703033,3.91344512,0,S5654
S5563,5563,Mosson,43.61622302,3.81961176,1,
1250,43103,Mosson,43.61622302,3.81961176,0,S5563
1297,43255,Mosson,43.61625778,3.81969928,0,S5563
828,25126,Mosson,43.61612909,3.81990628,0,S5563
1130,41101,Mosson,43.6163195,3.81978749,0,S5563
1348,25127,Mosson,43.61667726,3.81926473,0,S5563
S5423,5423,Collège des Aiguerelles,43.59829462,3.89092638,1,
307,08104,Collège des Aiguerelles,43.59829462,3.89092638,0,S5423
337,08221,Collège des Aiguerelles,43.59756695,3.89214353,0,S5423
S5184,5184,Collège Frédéric Bazille,43.63438802,3.90652659,1,
1014,35112,Collège Frédéric Bazille,43.63438802,3.90652659,0,S5184
1025,35212,Collège Frédéric Bazille,43.63445919,3.90657806,0,S5184
S5219,5219,Moulières,43.6596784,3.89334099,1,
682,22111,Moulières,43.6596784,3.89334099,0,S5219
712,22211,Moulières,43.65968987,3.89316794,0,S5219
S5712,5712,Moulin Neuf,43.69033529,3.86233659,1,
744,23118,Moulin Neuf,43.69033529,3.86233659,0,S5712
760,23210,Moulin Neuf,43.69042638,3.8622523,0,S5712
S5564,5564,Moularès (Hôtel de Ville),43.60072995,3.89535928,1,
1153,41147,Moularès (Hôtel de Ville),43.60072995,3.89535928,0,S5564
1164,41209,Moularès (Hôtel de Ville),43.60073787,3.89543372,0,S5564
S5730,5730,Les Mourguettes,43.69690116,4.02633529,1,
936,31103,Les Mourguettes,43.69690116,4.02633529,0,S5730
942,31203,Les Mourguettes,43.69696233,4.02644862,0,S5730
S5542,5542,Maison des Sports,43.6184282,3.8646477,1,
75,03120,Maison des Sports,43.6184282,3.8646477,0,S5542
98,03210,Maison des Sports,43.6183242,3.86437269,0,S5542
S5561,5561,Monsieur Teste,43.60738521,3.83599705,1,
264,07126,Monsieur Teste,43.60738521,3.83599705,0,S5561
279,07205,Monsieur Teste,43.60697586,3.83634508,0,S5561
S5566,5566,Mûriers,43.62620605,3.84916366,1,
296,07224,Mûriers,43.62620605,3.84916366,0,S5566
S5195,5195,Mûriers,43.64067341,3.91137861,1,
139,04164,Mûriers,43.64067341,3.91137861,0,S5195
151,04207,Mûriers,43.64063333,3.91166222,0,S5195
S5567,5567,Myrtes,43.60111037,3.86618849,1,
255,07116,Myrtes,43.60111037,3.86618849,0,S5567
S5568,5568,Nazareth,43.6216854,3.88027731,1,
183,05134,Nazareth,43.6216854,3.88027731,0,S5568
201,05232,Nazareth,43.62164963,3.88026397,0,S5568
S5169,5169,Mairie,43.7290196,4.02090214,1,
1012,35109,Mairie,43.7290196,4.02090214,0,S5169
1306,27215,Mairie,43.7289364,4.02104846,0,S5169
S5372,5372,Alfred Nobel,43.61641842,3.91078414,1,
504,12125,Alfred Nobel,43.61641842,3.91078414,0,S5372
521,12220,Alfred Nobel,43.61575183,3.90963978,0,S5372
S5569,5569,Nouveau Saint-Roch,43.59949297,3.87564517,1,
1199,42123,Nouveau Saint-Roch,43.59949297,3.87564517,0,S5569
1239,42247,Nouveau Saint-Roch,43.59954759,3.87559716,0,S5569
S5340,5340,Oasis Palavasienne,43.55549914,3.89256882,1,
550,17104,Oasis Palavasienne,43.55549914,3.89256882,0,S5340
557,17218,Oasis Palavasienne,43.55525937,3.89361291,0,S5340
S5570,5570,Observatoire,43.60643894,3.87648797,1,
51,02133,Observatoire,43.60643894,3.87648797,0,S5570
1261,43125,Observatoire,43.60644722,3.87653768,0,S5570
1286,43233,Observatoire,43.60651928,3.87652725,0,S5570
S5571,5571,Occitanie,43.63435811,3.84863696,1,
86,03138,Occitanie,43.63435811,3.84863696,0,S5571
113,03228,Occitanie,43.63461353,3.84837142,0,S5571
752,23130,Occitanie,43.63462287,3.84834692,0,S5571
1137,41115,Occitanie,43.6346303,3.84845851,0,S5571
1180,41241,Occitanie,43.63465691,3.84848397,0,S5571
1345,23238,Occitanie,43.63462287,3.84834692,0,S5571
S5651,5651,Sainte-Odile,43.62260437,3.87318664,1,
202,05233,Sainte-Odile,43.62260437,3.87318664,0,S5651
480,11128,Sainte-Odile,43.62276858,3.87301781,0,S5651
S5572,5572,Odysseum,43.60412063,3.92062653,1,
1157,41155,Odysseum,43.60412063,3.92062653,0,S5572
1160,41201,Odysseum,43.60412889,3.92067625,0,S5572
S5718,5718,Olivette,43.6655912,4.03183586,1,
911,29128,Olivette,43.6655912,4.03183586,0,S5718
925,29221,Olivette,43.66547969,4.03206785,0,S5718
S5573,5573,Ormeaux,43.60202273,3.83374102,1,
272,07162,Ormeaux,43.60202273,3.83374102,0,S5573
304,07262,Ormeaux,43.60304451,3.83331009,0,S5573
S5574,5574,Oxford,43.62693669,3.82040974,1,
23,01138,Oxford,43.62693669,3.82040974,0,S5574
585,19202,Oxford,43.62703164,3.82069685,0,S5574
S5387,5387,Beaux-Arts,43.61699991,3.88355341,1,
1207,42143,Beaux-Arts,43.61699991,3.88355341,0,S5387
1231,42227,Beaux-Arts,43.61701841,3.88351679,0,S5387
S5698,5698,La Bornière,43.57964027,3.75358446,1,
1043,36123,La Bornière,43.57964027,3.75358446,0,S5698
1079,36214,La Bornière,43.5795462,3.75390362,0,S5698
S5601,5601,Pioch de Boutonnet,43.63379811,3.87751045,1,
475,11117,Pioch de Boutonnet,43.63379811,3.87751045,0,S5601
485,11206,Pioch de Boutonnet,43.63391757,3.87732802,0,S5601
S5694,5694,Coopérative Oléicole,43.58465674,3.75697351,1,
1039,36119,Coopérative Oléicole,43.58465674,3.75697351,0,S5694
1083,36218,Coopérative Oléicole,43.58465447,3.75714658,0,S5694
S5695,5695,Distillerie,43.58556866,3.76690168,1,
1035,36115,Distillerie,43.58556866,3.76690168,0,S5695
1087,36222,Distillerie,43.58547112,3.76680031,0,S5695
S5696,5696,Gaston Defferre,43.58422546,3.75284487,1,
1040,36120,Gaston Defferre,43.58422546,3.75284487,0,S5696
1082,36217,Gaston Defferre,43.58426797,3.75303142,0,S5696
S5697,5697,Jean Moulin,43.58263885,3.7518163,1,
1041,36121,Jean Moulin,43.58263885,3.7518163,0,S5697
1081,36216,Jean Moulin,43.58252778,3.75206086,0,S5697
S5686,5686,Lauriers,43.56870095,3.94563269,1,
878,28110,Lauriers,43.56870095,3.94563269,0,S5686
895,28209,Lauriers,43.56879924,3.94567255,0,S5686
S5702,5702,Médiathèque La Gare,43.58614476,3.76002793,1,
1038,36118,Médiathèque La Gare,43.58614476,3.76002793,0,S5702
S5701,5701,Maison de Retraite,43.58129663,3.75065781,1,
1042,36122,Maison de Retraite,43.58129663,3.75065781,0,S5701
1080,36215,Maison de Retraite,43.58143256,3.75057461,0,S5701
S5616,5616,Pous de la Sers,43.61912363,3.86186978,1,
76,03121,Pous de la Sers,43.61912363,3.86186978,0,S5616
97,03209,Pous de la Sers,43.61926767,3.8612178,0,S5616
S5279,5279,Bel Air,43.65986403,3.92206215,1,
694,22131,Bel Air,43.65986403,3.92206215,0,S5279
S5704,5704,Square Tribes,43.5840096,3.7597027,1,
1084,36219,Square Tribes,43.5840096,3.7597027,0,S5704
S5693,5693,Saint-Jean,43.56108734,3.95222971,1,
881,28113,Saint-Jean,43.56108734,3.95222971,0,S5693
892,28206,Saint-Jean,43.56101631,3.95277161,0,S5693
S5690,5690,Pérols Sud,43.55955823,3.95829302,1,
882,28114,Pérols Sud,43.55955823,3.95829302,0,S5690
891,28205,Pérols Sud,43.55980548,3.957991,0,S5690
S5699,5699,Le Temple,43.58551109,3.76241123,1,
1037,36117,Le Temple,43.58551109,3.76241123,0,S5699
1085,36220,Le Temple,43.58555178,3.76273377,0,S5699
S5700,5700,Lotissement Les Violettes,43.58755822,3.76599922,1,
1036,36116,Lotissement Les Violettes,43.58755822,3.76599922,0,S5700
1086,36221,Lotissement Les Violettes,43.5876257,3.76633482,0,S5700
S5424,5424,Collège Marcel Pagnol,43.59742519,3.84566817,1,
135,04143,Collège Marcel Pagnol,43.59742519,3.84566817,0,S5424
165,04242,Collège Marcel Pagnol,43.59697345,3.84518622,0,S5424
S5264,5264,Lou Paillas,43.54555895,3.774292,1,
979,33100,Lou Paillas,43.54555895,3.774292,0,S5264
1359,33117,Lou Paillas,43.54555895,3.774292,0,S5264
S5685,5685,EcoPôle,43.57815542,3.93489369,1,
1270,43151,EcoPôle,43.57815542,3.93489369,0,S5685
1277,43207,EcoPôle,43.57816331,3.9349681,0,S5685
S5587,5587,Paul Painlevé,43.61114808,3.8985387,1,
348,09122,Paul Painlevé,43.61114808,3.8985387,0,S5587
370,09206,Paul Painlevé,43.61052732,3.89857121,0,S5587
S5265,5265,Paix,43.55545373,3.77917577,1,
989,33110,Paix,43.55545373,3.77917577,0,S5265
1002,33210,Paix,43.55524812,3.77841663,0,S5265
S5388,5388,Bellevue,43.59664066,3.88087471,1,
495,12108,Bellevue,43.59664066,3.88087471,0,S5388
S5576,5576,Paladilhe,43.61204561,3.86718653,1,
254,07115,Paladilhe,43.61204561,3.86718653,0,S5576
373,09209,Paladilhe,43.61234296,3.86650164,0,S5576
S5577,5577,Palissade,43.60742621,3.86963604,1,
493,11224,Palissade,43.60742621,3.86963604,0,S5577
S5578,5578,Palombes,43.61948598,3.89386654,1,
314,08116,Palombes,43.61948598,3.89386654,0,S5578
328,08208,Palombes,43.61973529,3.89403421,0,S5578
S5579,5579,Pâquerettes,43.59965258,3.88147565,1,
497,12110,Pâquerettes,43.59965258,3.88147565,0,S5579
515,12208,Pâquerettes,43.59977611,3.88100894,0,S5579
S5163,5163,Paradis,43.66409542,4.01415624,1,
917,29204,Paradis,43.66409542,4.01415624,0,S5163
S5580,5580,Parc de la Lironde,43.60864143,3.90651186,1,
414,10145,Parc de la Lironde,43.60864143,3.90651186,0,S5580
458,10250,Parc de la Lironde,43.60848902,3.90648293,0,S5580
S5583,5583,Passerines,43.58844576,3.87241658,1,
171,05103,Passerines,43.58844576,3.87241658,0,S5583
874,27115,Passerines,43.58864363,3.87240953,0,S5583
S5584,5584,Pastourelles,43.62183414,3.90121926,1,
423,10154,Pastourelles,43.62183414,3.90121926,0,S5584
460,10252,Pastourelles,43.62183552,3.90050156,0,S5584
S5589,5589,Petit Bard,43.61463863,3.8354327,1,
9,01113,Petit Bard,43.61463863,3.8354327,0,S5589
40,01225,Petit Bard,43.61457102,3.8351216,0,S5589
S5610,5610,Plan Cabanes,43.60816934,3.86857965,1,
545,15218,Plan Cabanes,43.60816934,3.86857965,0,S5610
1259,43121,Plan Cabanes,43.60863744,3.86789938,0,S5610
1288,43237,Plan Cabanes,43.60857191,3.8680832,0,S5610
S5389,5389,Belvédère,43.61703134,3.84244937,1,
338,09109,Belvédère,43.61703134,3.84244937,0,S5389
383,09219,Belvédère,43.61726291,3.84260396,0,S5389
S5634,5634,Saint-Clément,43.61774135,3.84439838,1,
339,09110,Saint-Clément,43.61774135,3.84439838,0,S5634
382,09218,Saint-Clément,43.617722,3.84449686,0,S5634
S5198,5198,Pioch Pelat,43.62617114,3.902192,1,
319,08122,Pioch Pelat,43.62617114,3.902192,0,S5198
323,08202,Pioch Pelat,43.6262281,3.90198317,0,S5198
S5713,5713,Pendances,43.68386003,3.86314209,1,
742,23116,Pendances,43.68386003,3.86314209,0,S5713
762,23212,Pendances,43.68414778,3.8631374,0,S5713
S5588,5588,Pergola,43.61763788,3.83955757,1,
1254,43111,Pergola,43.61763788,3.83955757,0,S5588
1293,43247,Pergola,43.61817272,3.83923755,0,S5588
S5838,5838,Pérols Centre - Bazille,43.56305064,3.95018363,1,
880,28112,Pérols Centre - Bazille,43.56305064,3.95018363,0,S5838
893,28207,Pérols Centre - Bazille,43.56275922,3.95043501,0,S5838
S5688,5688,Pérols Centre,43.56555299,3.95717736,1,
1272,43155,Pérols Centre,43.56555299,3.95717736,0,S5688
1275,43203,Pérols Centre,43.56553335,3.95728807,0,S5688
S5731,5731,Les Pérouses,43.6981684,4.02405559,1,
935,31102,Les Pérouses,43.6981684,4.02405559,0,S5731
941,31202,Les Pérouses,43.69819401,4.02414309,0,S5731
S5157,5157,François Perroux,43.65363543,4.00103352,1,
907,29112,François Perroux,43.65363543,4.00103352,0,S5157
924,29213,François Perroux,43.65363543,4.00103352,0,S5157
S5689,5689,Pérols Étang de l'Or,43.5580407,3.96356524,1,
1274,43201,Pérols Étang de l'Or,43.5580407,3.96356524,0,S5689
S5496,5496,Hôpital Lapeyronie,43.63165105,3.85257532,1,
1138,41117,Hôpital Lapeyronie,43.63165105,3.85257532,0,S5496
1179,41239,Hôpital Lapeyronie,43.63166867,3.85260055,0,S5496
S5390,5390,Bengalis,43.6285875,3.8829391,1,
396,10105,Bengalis,43.6285875,3.8829391,0,S5390
439,10215,Bengalis,43.62865657,3.88313899,0,S5390
S5467,5467,Frédéric Peyson,43.60252942,3.88020506,1,
513,12206,Frédéric Peyson,43.60252942,3.88020506,0,S5467
S5456,5456,Fac de Pharmacie,43.62363101,3.86161891,1,
401,10111,Fac de Pharmacie,43.62363101,3.86161891,0,S5456
444,10224,Fac de Pharmacie,43.62463173,3.86332865,0,S5456
S5660,5660,Stade Philippidès,43.61898936,3.86946381,1,
1142,41125,Stade Philippidès,43.61898936,3.86946381,0,S5660
1175,41231,Stade Philippidès,43.61898884,3.86950092,0,S5660
S5363,5363,Picadou,43.66918964,3.86240289,1,
739,23113,Picadou,43.66918964,3.86240289,0,S5363
765,23215,Picadou,43.66901539,3.8613703,0,S5363
S5575,5575,Pablo Picasso,43.59788172,3.90334649,1,
1268,43145,Pablo Picasso,43.59788172,3.90334649,0,S5575
1279,43213,Pablo Picasso,43.59794212,3.90352132,0,S5575
S5364,5364,Picheyrou,43.65318039,3.86035303,1,
729,23103,Picheyrou,43.65318039,3.86035303,0,S5364
775,23225,Picheyrou,43.65309035,3.860363,0,S5364
S5598,5598,Pilory,43.6193983,3.83188253,1,
1252,43107,Pilory,43.6193983,3.83188253,0,S5598
1295,43251,Pilory,43.61957444,3.832147,0,S5598
S5599,5599,Pinsons,43.61695429,3.88611351,1,
311,08111,Pinsons,43.61695429,3.88611351,0,S5599
332,08213,Pinsons,43.61719444,3.88629326,0,S5599
S5600,5600,Pinville,43.61403736,3.90450726,1,
416,10147,Pinville,43.61403736,3.90450726,0,S5600
456,10248,Pinville,43.61383967,3.90450183,0,S5600
468,11103,Pinville,43.61386506,3.90585118,0,S5600
492,11220,Pinville,43.61394918,3.90624943,0,S5600
S5602,5602,Pitot,43.61209081,3.87034273,1,
288,07215,Pitot,43.61209081,3.87034273,0,S5602
S5312,5312,La Bergerie,43.61707438,3.79666887,1,
834,25133,La Bergerie,43.61707438,3.79666887,0,S5312
855,25233,La Bergerie,43.61699417,3.79661733,0,S5312
S5590,5590,Peyrou - Arc de Triomphe,43.61140675,3.87230394,1,
1431,44103,Peyrou - Arc de Triomphe,43.61140675,3.87230394,0,S5590
1437,44203,Peyrou - Arc de Triomphe,43.61141696,3.87221761,0,S5590
5,00106,Peyrou - Arc de Triomphe,43.61074791,3.8718532,0,S5590
52,02135,Peyrou - Arc de Triomphe,43.61097186,3.87190871,0,S5590
S5605,5605,Place de France,43.60370791,3.91503585,1,
362,09146,Place de France,43.60370791,3.91503585,0,S5605
393,09246,Place de France,43.60368705,3.91523321,0,S5605
S5691,5691,Plein Sud,43.57115563,3.94196791,1,
887,28126,Plein Sud,43.57115563,3.94196791,0,S5691
897,28226,Plein Sud,43.57153871,3.94280705,0,S5691
S5609,5609,Place du 8 Mai,43.59994755,3.86704799,1,
227,06127,Place du 8 Mai,43.59994755,3.86704799,0,S5609
243,06227,Place du 8 Mai,43.59958646,3.86651879,0,S5609
S5313,5313,La Plaine,43.61170817,3.81450854,1,
815,25102,La Plaine,43.61170817,3.81450854,0,S5313
845,25216,La Plaine,43.61175141,3.81463338,0,S5313
S5271,5271,Gaston Planté,43.64653945,3.83114496,1,
797,24125,Gaston Planté,43.64653945,3.83114496,0,S5271
813,24225,Gaston Planté,43.64669779,3.8313967,0,S5271
S5595,5595,Pierre Laroque,43.62152807,3.90435403,1,
427,10159,Pierre Laroque,43.62152807,3.90435403,0,S5595
465,10259,Pierre Laroque,43.62118731,3.90429518,0,S5595
S5612,5612,Pléiade,43.62847405,3.84575846,1,
246,07106,Pléiade,43.62847405,3.84575846,0,S5612
298,07226,Pléiade,43.62844536,3.84588146,0,S5612
S5605,5605,Place de France,43.60372458,3.91574145,1,
1158,41161,Place de France,43.60372458,3.91574145,0,S5605
1187,41261,Place de France,43.6037519,3.91571746,0,S5605
S5391,5391,Berthelot,43.60184719,3.86938737,1,
173,05118,Berthelot,43.60184719,3.86938737,0,S5391
198,05214,Berthelot,43.60216491,3.86980412,0,S5391
S5582,5582,Pas du Loup,43.60013266,3.84812706,1,
210,06101,Pas du Loup,43.60013266,3.84812706,0,S5582
241,06221,Pas du Loup,43.60044614,3.84885281,0,S5582
S5614,5614,Port Marianne,43.60157636,3.89962538,1,
1154,41149,Port Marianne,43.60157636,3.89962538,0,S5614
1163,41207,Port Marianne,43.60156481,3.89917974,0,S5614
S5252,5252,Pointes,43.63865085,3.93284888,1,
625,20218,Pointes,43.63865085,3.93284888,0,S5252
S5656,5656,Semard,43.6191463,3.90307599,1,
353,09129,Semard,43.6191463,3.90307599,0,S5656
354,09132,Semard,43.61916627,3.90355913,0,S5656
417,10148,Semard,43.61960448,3.90433835,0,S5656
455,10247,Semard,43.61966899,3.90422876,0,S5656
S5613,5613,Pompignane,43.61227921,3.89490734,1,
1204,42137,Pompignane,43.61227921,3.89490734,0,S5613
1234,42233,Pompignane,43.61245013,3.89489963,0,S5613
S5615,5615,Porto,43.60038579,3.87986264,1,
498,12111,Porto,43.60038579,3.87986264,0,S5615
514,12207,Porto,43.6003324,3.87982409,0,S5615
S5793,5793,Poste,43.65765504,3.96848509,1,
645,21108,Poste,43.65765504,3.96848509,0,S5793
662,21210,Poste,43.65774733,3.96832675,0,S5793
S5710,5710,Mairie,43.69725653,3.86369886,1,
748,23122,Mairie,43.69725653,3.86369886,0,S5710
756,23201,Mairie,43.69730539,3.8640595,0,S5710
S5502,5502,Jacques Prévert,43.64235059,3.81408859,1,
17,01131,Jacques Prévert,43.64235059,3.81408859,0,S5502
30,01205,Jacques Prévert,43.64226005,3.81413576,0,S5502
S5617,5617,Primevères,43.59818732,3.88147314,1,
496,12109,Primevères,43.59818732,3.88147314,0,S5617
S5593,5593,Pierre d'Adhémar,43.62216921,3.86391868,1,
430,10163,Pierre d'Adhémar,43.62216921,3.86391868,0,S5593
467,10263,Pierre d'Adhémar,43.62211303,3.86407805,0,S5593
S5280,5280,Bibliothèque,43.65899436,3.91142593,1,
702,22169,Bibliothèque,43.65899436,3.91142593,0,S5280
727,22269,Bibliothèque,43.65913995,3.91130612,0,S5280
S5596,5596,Pierre Rouge,43.62306375,3.88259154,1,
471,11113,Pierre Rouge,43.62306375,3.88259154,0,S5596
489,11210,Pierre Rouge,43.62293848,3.88255103,0,S5596
S5197,5197,Palais des Sports,43.64516162,3.9173952,1,
1017,35116,Palais des Sports,43.64516162,3.9173952,0,S5197
1028,35216,Palais des Sports,43.64516433,3.91720957,0,S5197
S5714,5714,Pont Vert,43.68670673,3.86336692,1,
743,23117,Pont Vert,43.68670673,3.86336692,0,S5714
761,23211,Pont Vert,43.68654532,3.86333782,0,S5714
S5618,5618,Puccini,43.59494387,3.85403811,1,
554,17134,Puccini,43.59494387,3.85403811,0,S5618
562,17234,Puccini,43.59498706,3.85416294,0,S5618
S5597,5597,Pierre Viala,43.61742538,3.85414042,1,
84,03136,Pierre Viala,43.61742538,3.85414042,0,S5597
115,03230,Pierre Viala,43.61658649,3.85498427,0,S5597
S5619,5619,Puech Villa,43.64008201,3.82939149,1,
50,02129,Puech Villa,43.64008201,3.82939149,0,S5619
55,02203,Puech Villa,43.63970895,3.82971595,0,S5619
S5627,5627,Rives du Lez,43.60407129,3.89493087,1,
1152,41145,Rives du Lez,43.60407129,3.89493087,0,S5627
1165,41211,Rives du Lez,43.60401719,3.89494177,0,S5627
1203,42133,Rives du Lez,43.60394407,3.89377692,0,S5627
1235,42237,Rives du Lez,43.603989,3.89377814,0,S5627
S5692,5692,Radel,43.55683141,3.96387693,1,
883,28115,Radel,43.55683141,3.96387693,0,S5692
890,28204,Radel,43.55665963,3.96453952,0,S5692
S5620,5620,Raimbaud d'Orange,43.63748547,3.82078289,1,
14,01126,Raimbaud d'Orange,43.63748547,3.82078289,0,S5620
35,01211,Raimbaud d'Orange,43.63741408,3.82139992,0,S5620
S5366,5366,Rapatel,43.65164285,3.86419963,1,
728,23102,Rapatel,43.65164285,3.86419963,0,S5366
776,23226,Rapatel,43.65143415,3.86497405,0,S5366
S5154,5154,Biste,43.65562895,4.00001439,1,
899,29104,Biste,43.65562895,4.00001439,0,S5154
922,29209,Biste,43.65582474,4.00014392,0,S5154
S5514,5514,La Rauze,43.59347053,3.89569309,1,
1266,43139,La Rauze,43.59347053,3.89569309,0,S5514
1281,43219,La Rauze,43.59351439,3.8957685,0,S5514
S5621,5621,Razeteurs,43.59562334,3.88412499,1,
519,12212,Razeteurs,43.59562334,3.88412499,0,S5621
S5320,5320,Récantou,43.61307686,3.81565748,1,
814,25101,Récantou,43.61307686,3.81565748,0,S5320
846,25217,Récantou,43.61300176,3.81589061,0,S5320
S5495,5495,Hippolyte Rech,43.62014745,3.86512679,1,
185,05138,Hippolyte Rech,43.62014745,3.86512679,0,S5495
205,05238,Hippolyte Rech,43.61969202,3.8655477,0,S5495
S5738,5738,La Regnague,43.60882288,3.79593837,1,
1055,36138,La Regnague,43.60882288,3.79593837,0,S5738
1093,36238,La Regnague,43.60898626,3.79715496,0,S5738
S5622,5622,Renaudel,43.6146401,3.82816983,1,
11,01115,Renaudel,43.6146401,3.82816983,0,S5622
38,01223,Renaudel,43.61460381,3.82819363,0,S5622
S5624,5624,Renouvier,43.60712196,3.86636182,1,
544,15217,Renouvier,43.60712196,3.86636182,0,S5624
S5716,5716,Mairie,43.72354525,4.03867916,1,
1011,35108,Mairie,43.72354525,4.03867916,0,S5716
1021,35207,Mairie,43.72369763,4.03870851,0,S5716
S5625,5625,Restanque,43.59041665,3.88487447,1,
1264,43135,Restanque,43.59041665,3.88487447,0,S5625
1283,43223,Restanque,43.59043356,3.88494914,0,S5625
S5203,5203,Rose de France,43.6322866,3.90140664,1,
1016,35115,Rose de France,43.6322866,3.90140664,0,S5203
1027,35215,Rose de France,43.63237432,3.90155757,0,S5203
S5326,5326,Boirargues,43.58274314,3.92553702,1,
1269,43149,Boirargues,43.58274314,3.92553702,0,S5326
1278,43209,Boirargues,43.58274241,3.92558647,0,S5326
S5645,5645,Saint-Michel,43.60660722,3.89861249,1,
364,09148,Saint-Michel,43.60660722,3.89861249,0,S5645
372,09208,Saint-Michel,43.60660722,3.89861249,0,S5645
S5626,5626,Rièges,43.61973172,3.84928918,1,
403,10113,Rièges,43.61973172,3.84928918,0,S5626
433,10206,Rièges,43.61957861,3.84930988,0,S5626
S5321,5321,Rivière,43.60987738,3.81559938,1,
816,25103,Rivière,43.60987738,3.81559938,0,S5321
844,25215,Rivière,43.60957015,3.81571515,0,S5321
S5266,5266,Rouget de Lisle,43.55709369,3.78426016,1,
984,33105,Rouget de Lisle,43.55709369,3.78426016,0,S5266
997,33205,Rouget de Lisle,43.55691214,3.78439152,0,S5266
S5254,5254,Route de Nîmes,43.64160066,3.94250039,1,
640,21102,Route de Nîmes,43.64160066,3.94250039,0,S5254
667,21216,Route de Nîmes,43.64178516,3.94218372,0,S5254
S5253,5253,Rocailles,43.65682616,3.93606891,1,
606,20129,Rocailles,43.65682616,3.93606891,0,S5253
612,20205,Rocailles,43.6569127,3.93568748,0,S5253
S5194,5194,Mas de Rochet,43.6258568,3.90651483,1,
320,08123,Mas de Rochet,43.6258568,3.90651483,0,S5194
1333,08124,Mas de Rochet,43.6258638,3.90603238,0,S5194
S5300,5300,Romarin,43.65751278,3.91377487,1,
691,22128,Romarin,43.65751278,3.91377487,0,S5300
S5628,5628,Ronceray,43.5937857,3.86032764,1,
216,06107,Ronceray,43.5937857,3.86032764,0,S5628
235,06214,Ronceray,43.59393829,3.86034408,0,S5628
S5629,5629,Rondelet,43.60408893,3.87485354,1,
196,05212,Rondelet,43.60408893,3.87485354,0,S5629
1200,42125,Rondelet,43.60308022,3.876249,0,S5629
1238,42245,Rondelet,43.60307846,3.87637265,0,S5629
1363,36137,Rondelet,43.60408893,3.87485354,0,S5629
S5682,5682,Bonadona,43.55569882,3.9656617,1,
884,28116,Bonadona,43.55569882,3.9656617,0,S5682
889,28203,Bonadona,43.55473256,3.96654884,0,S5682
S5630,5630,Roqueturière,43.63034762,3.88558582,1,
395,10104,Roqueturière,43.63034762,3.88558582,0,S5630
440,10216,Roqueturière,43.62984948,3.88584459,0,S5630
S5531,5531,Les Roses,43.60256068,3.85448781,1,
122,04110,Les Roses,43.60256068,3.85448781,0,S5531
160,04231,Les Roses,43.60238859,3.85393895,0,S5531
S5435,5435,Croix des Rosiers,43.61067365,3.83092421,1,
266,07128,Croix des Rosiers,43.61067365,3.83092421,0,S5435
277,07203,Croix des Rosiers,43.61088717,3.83043491,0,S5435
S5244,5244,Fernand Rouché,43.64756079,3.94130621,1,
599,20121,Fernand Rouché,43.64756079,3.94130621,0,S5244
621,20214,Fernand Rouché,43.64747992,3.94130394,0,S5244
S5758,5758,Roudères,43.57488925,3.8255252,1,
592,20107,Roudères,43.57488925,3.8255252,0,S5758
628,20230,Roudères,43.57493691,3.82532862,0,S5758
S5631,5631,Rouget de Lisle,43.59481837,3.8398479,1,
119,04103,Rouget de Lisle,43.59481837,3.8398479,0,S5631
163,04238,Rouget de Lisle,43.59447375,3.8394183,0,S5631
S5301,5301,Roveraie,43.65837174,3.92205785,1,
687,22123,Roveraie,43.65837174,3.92205785,0,S5301
S5322,5322,Route de Saint-Georges,43.6128163,3.8090562,1,
821,25108,Route de Saint-Georges,43.6128163,3.8090562,0,S5322
839,25210,Route de Saint-Georges,43.61276675,3.80873324,0,S5322
S5767,5767,Aires,43.57256242,3.77291879,1,
992,33113,Aires,43.57256242,3.77291879,0,S5767
1005,33213,Aires,43.57267551,3.772526,0,S5767
S5768,5768,Barils,43.57183745,3.77335803,1,
991,33112,Barils,43.57183745,3.77335803,0,S5768
1004,33212,Barils,43.57189334,3.77321107,0,S5768
S5623,5623,René Bougnol,43.63644303,3.87421507,1,
477,11120,René Bougnol,43.63644303,3.87421507,0,S5623
483,11203,René Bougnol,43.63647456,3.8738941,0,S5623
S5771,5771,Les Cévennes,43.5726849,3.7711415,1,
1034,36114,Les Cévennes,43.5726849,3.7711415,0,S5771
1088,36223,Les Cévennes,43.57263278,3.7710042,0,S5771
S5772,5772,Les Combes,43.5706969,3.7692124,1,
1033,36113,Les Combes,43.5706969,3.7692124,0,S5772
1089,36224,Les Combes,43.57066308,3.76905083,0,S5772
S5769,5769,La Gardiole,43.56869815,3.77080657,1,
1032,36112,La Gardiole,43.56869815,3.77080657,0,S5769
1090,36225,La Gardiole,43.56875436,3.7706349,0,S5769
S5777,5777,Les Garrigues,43.70548421,4.00622752,1,
1300,27119,Les Garrigues,43.70548421,4.00622752,0,S5777
1308,27219,Les Garrigues,43.70548631,4.00609126,0,S5777
S5773,5773,Mairie,43.57075534,3.77361518,1,
990,33111,Mairie,43.57075534,3.77361518,0,S5773
1003,33211,Mairie,43.57076629,3.7734671,0,S5773
S5778,5778,Les Mazes,43.70938129,4.00537488,1,
1301,27120,Les Mazes,43.70938129,4.00537488,0,S5778
1309,27220,Les Mazes,43.70964056,4.00546923,0,S5778
S5774,5774,Pascaou,43.56796163,3.77347078,1,
993,33114,Pascaou,43.56796163,3.77347078,0,S5774
1006,33214,Pascaou,43.5680247,3.77346001,0,S5774
S5770,5770,La Vialette,43.56863001,3.77390792,1,
1031,36111,La Vialette,43.56863001,3.77390792,0,S5770
1091,36226,La Vialette,43.56854749,3.77402947,0,S5770
S5633,5633,Sabines,43.58367164,3.86039188,1,
421,10152,Sabines,43.58367164,3.86039188,0,S5633
451,10243,Sabines,43.58395804,3.85984303,0,S5633
1193,42111,Sabines,43.58393728,3.86004034,0,S5633
1245,42259,Sabines,43.5839112,3.85997781,0,S5633
1335,17124,Sabines,43.58378967,3.86030846,0,S5633
S5196,5196,Notre-Dame de Sablassou,43.63474401,3.92341934,1,
668,21217,Notre-Dame de Sablassou,43.63474401,3.92341934,0,S5196
669,21218,Notre-Dame de Sablassou,43.63395737,3.92188744,0,S5196
1215,42159,Notre-Dame de Sablassou,43.63423949,3.9222666,0,S5196
1223,42211,Notre-Dame de Sablassou,43.63426681,3.9222426,0,S5196
S5529,5529,Les Bouisses,43.59932515,3.83509284,1,
273,07164,Les Bouisses,43.59932515,3.83509284,0,S5529
S5653,5653,Salaison,43.62390059,3.89881322,1,
317,08120,Salaison,43.62390059,3.89881322,0,S5653
325,08204,Salaison,43.62382204,3.89865019,0,S5653
S5202,5202,Roger Salengro,43.63276527,3.8962709,1,
127,04124,Roger Salengro,43.63276527,3.8962709,0,S5202
S5357,5357,Font de Salomé,43.67657654,3.87151867,1,
755,23133,Font de Salomé,43.67657654,3.87151867,0,S5357
781,23237,Font de Salomé,43.67664243,3.87130987,0,S5357
S5205,5205,Sapins,43.63701348,3.91021316,1,
136,04161,Sapins,43.63701348,3.91021316,0,S5205
154,04210,Sapins,43.63691337,3.91029705,0,S5205
S5655,5655,Saporta,43.58459606,3.88831546,1,
64,03105,Saporta,43.58459606,3.88831546,0,S5655
109,03223,Saporta,43.58360009,3.8875588,0,S5655
S5817,5817,Sauvagine,43.66233833,3.93659489,1,
1338,20134,Sauvagine,43.66233833,3.93659489,0,S5817
1356,30207,Sauvagine,43.66233833,3.93659489,0,S5817
S5722,5722,Les Mazes,43.73153197,3.98141168,1,
1065,36157,Les Mazes,43.73153197,3.98141168,0,S5722
1102,36257,Les Mazes,43.73152336,3.98138663,0,S5722
S5723,5723,Lotissement Les Lilas,43.72805219,3.96475996,1,
1059,36151,Lotissement Les Lilas,43.72805219,3.96475996,0,S5723
1097,36251,Lotissement Les Lilas,43.72805615,3.96509482,0,S5723
S5725,5725,Mas de Bizard,43.72630264,3.98060373,1,
1066,36158,Mas de Bizard,43.72630264,3.98060373,0,S5725
1103,36258,Mas de Bizard,43.72632081,3.98059186,0,S5725
S5724,5724,Lotisssement Les Romarins,43.72940802,3.96965881,1,
1061,36153,Lotisssement Les Romarins,43.72940802,3.96965881,0,S5724
1100,36255,Lotisssement Les Romarins,43.72964994,3.97031045,0,S5724
S5529,5529,Les Bouisses,43.59853975,3.835332,1,
274,07165,Les Bouisses,43.59853975,3.835332,0,S5529
303,07261,Les Bouisses,43.59862875,3.83539618,0,S5529
541,15114,Les Bouisses,43.59850363,3.83534342,0,S5529
S5726,5726,Route de Teyran,43.73376925,3.97913277,1,
1101,36256,Route de Teyran,43.73376925,3.97913277,0,S5726
S5727,5727,Stade,43.73345709,3.98015291,1,
1060,36152,Stade,43.73345709,3.98015291,0,S5727
1098,36253,Stade,43.73344848,3.98012786,0,S5727
S5611,5611,Plan des 4 Seigneurs,43.64084403,3.85795656,1,
225,06123,Plan des 4 Seigneurs,43.64084403,3.85795656,0,S5611
779,23232,Plan des 4 Seigneurs,43.64081104,3.85774524,0,S5611
S5345,5345,Les Serres,43.58555199,3.8037163,1,
1111,38104,Les Serres,43.58555199,3.8037163,0,S5345
1120,38204,Les Serres,43.58543534,3.80370094,0,S5345
S5255,5255,Sienne,43.6622713,3.94112541,1,
929,30104,Sienne,43.6622713,3.94112541,0,S5255
933,30204,Sienne,43.66229074,3.94102688,0,S5255
S5762,5762,Sigaliès,43.57212562,3.81467209,1,
980,33101,Sigaliès,43.57212562,3.81467209,0,S5762
1001,33209,Sigaliès,43.57198218,3.81464365,0,S5762
S5761,5761,Saint-Jean le Sec,43.57075827,3.83758322,1,
608,20138,Saint-Jean le Sec,43.57075827,3.83758322,0,S5761
638,20242,Saint-Jean le Sec,43.57075775,3.83762029,0,S5761
1190,42103,Saint-Jean le Sec,43.57058753,3.83757873,0,S5761
1248,42267,Saint-Jean le Sec,43.57062348,3.83757968,0,S5761
S5657,5657,Soleiado,43.60069594,3.88646426,1,
309,08106,Soleiado,43.60069594,3.88646426,0,S5657
335,08219,Soleiado,43.60031954,3.8870107,0,S5657
S5720,5720,Sophoras,43.66801807,4.02669381,1,
909,29126,Sophoras,43.66801807,4.02669381,0,S5720
927,29223,Sophoras,43.66815248,4.02672256,0,S5720
S5519,5519,Las Sorbes,43.61515854,3.85488445,1,
343,09114,Las Sorbes,43.61515854,3.85488445,0,S5519
378,09214,Las Sorbes,43.61527345,3.85502361,0,S5519
S5393,5393,Boutonnet,43.62258675,3.86808777,1,
1141,41123,Boutonnet,43.62258675,3.86808777,0,S5393
1176,41233,Boutonnet,43.62259521,3.86812512,0,S5393
S5278,5278,Source,43.65066487,3.79094149,1,
788,24110,Source,43.65066487,3.79094149,0,S5278
800,24204,Source,43.65059397,3.7908654,0,S5278
S5392,5392,Boulevard des Sports,43.61935511,3.8892103,1,
313,08113,Boulevard des Sports,43.61935511,3.8892103,0,S5392
330,08211,Boulevard des Sports,43.61941766,3.88923675,0,S5392
S5647,5647,Saint-Priest,43.63515538,3.84368235,1,
244,07101,Saint-Priest,43.63515538,3.84368235,0,S5647
299,07228,Saint-Priest,43.63446463,3.84357748,0,S5647
S5204,5204,Saint-Exupéry,43.64154346,3.92321219,1,
130,04135,Saint-Exupéry,43.64154346,3.92321219,0,S5204
169,04264,Saint-Exupéry,43.64158049,3.92313895,0,S5204
S5719,5719,Saint-Brès,43.66488513,4.03673152,1,
913,29130,Saint-Brès,43.66488513,4.03673152,0,S5719
1351,29224,Saint-Brès,43.66488513,4.03673152,0,S5719
S5741,5741,Stade,43.60758935,3.78471086,1,
1056,36139,Stade,43.60758935,3.78471086,0,S5741
1092,36237,Stade,43.60735984,3.78439576,0,S5741
S5649,5649,Sainte-Catherine,43.62642717,3.87619777,1,
398,10108,Sainte-Catherine,43.62642717,3.87619777,0,S5649
437,10212,Sainte-Catherine,43.62628798,3.8765034,0,S5649
S5650,5650,Sainte-Geneviève,43.62323632,3.84423408,1,
82,03131,Sainte-Geneviève,43.62323632,3.84423408,0,S5650
91,03202,Sainte-Geneviève,43.62300804,3.84448792,0,S5650
S5652,5652,Sainte-Thérèse,43.6142856,3.8651679,1,
253,07114,Sainte-Thérèse,43.6142856,3.8651679,0,S5652
290,07217,Sainte-Thérèse,43.61410063,3.86553414,0,S5652
S5411,5411,Cimetière Saint-Étienne,43.61500215,3.93564015,1,
502,12119,Cimetière Saint-Étienne,43.61500215,3.93564015,0,S5411
509,12202,Cimetière Saint-Étienne,43.61489469,3.9356124,0,S5411
S5477,5477,Georges Brassens,43.5956976,3.86244424,1,
226,06126,Georges Brassens,43.5956976,3.86244424,0,S5477
242,06226,Georges Brassens,43.59587698,3.86247377,0,S5477
S5835,5835,Alicantes,43.61333606,3.78587109,1,
1409,42180,Les Alicantes,43.61333606,3.78587109,0,S5835
1417,42280,Les Alicantes,43.61332824,3.78578428,0,S5835
S5742,5742,Zone Artisanale,43.62927208,3.76917196,1,
1325,40108,Zone Artisanale,43.62927208,3.76917196,0,S5742
1366,40208,Zone Artisanale,43.62927208,3.76917196,0,S5742
S5638,5638,Saint-Gabriel,43.61459044,3.85244424,1,
342,09113,Saint-Gabriel,43.61459044,3.85244424,0,S5638
379,09215,Saint-Gabriel,43.6145279,3.85177444,0,S5638
S5733,5733,Avenue Justin Bec,43.62600083,3.76842164,1,
1324,40107,Avenue Justin Bec,43.62600083,3.76842164,0,S5733
1329,40207,Avenue Justin Bec,43.62526946,3.76934381,0,S5733
S5734,5734,Bel Horizon,43.61200081,3.7768055,1,
1321,40104,Bel Horizon,43.61200081,3.7768055,0,S5734
1407,40204,Bel Horizon,43.61249309,3.77696638,0,S5734
S5736,5736,Dame d'Orcas,43.61451431,3.7804446,1,
1323,40106,Dame d'Orcas,43.61451431,3.7804446,0,S5736
1328,40206,Dame d'Orcas,43.61451431,3.7804446,0,S5736
S5728,5728,Avenue de Montpellier,43.69688761,4.03238189,1,
1010,35107,Avenue de Montpellier,43.69688761,4.03238189,0,S5728
1022,35208,Avenue de Montpellier,43.69698627,4.03239721,0,S5728
S5737,5737,Gare,43.60905568,3.78865745,1,
1318,40101,Gare,43.60905568,3.78865745,0,S5737
1326,40201,Gare,43.60905568,3.78865745,0,S5737
S5836,5836,Les Jardins,43.60969068,3.78285888,1,
1425,40111,Les Jardins,43.60969068,3.78285888,0,S5836
1426,40211,Les Jardins,43.60969068,3.78285888,0,S5836
S5732,5732,Poste,43.69658975,4.03130738,1,
937,31104,Poste,43.69658975,4.03130738,0,S5732
943,31204,Poste,43.69667237,4.03119831,0,S5732
S5394,5394,Bugarel,43.59151106,3.84495543,1,
425,10156,Bugarel,43.59151106,3.84495543,0,S5394
463,10256,Bugarel,43.59172845,3.84483749,0,S5394
S5739,5739,Le Réservoir,43.61459078,3.7760542,1,
1322,40105,Le Réservoir,43.61459078,3.7760542,0,S5739
1408,40205,Le Réservoir,43.61485379,3.77655574,0,S5739
1440,40112,Le Réservoir,43.61486782,3.77685304,0,S5739
S5740,5740,Le Saint-Georges,43.6106154,3.78429269,1,
1319,40102,Le Saint-Georges,43.6106154,3.78429269,0,S5740
1327,40202,Le Saint-Georges,43.6106154,3.78429269,0,S5740
S5639,5639,Saint-Guilhem - Courreau,43.60880959,3.87287745,1,
53,02140,Saint-Guilhem - Courreau,43.60880959,3.87287745,0,S5639
59,02221,Saint-Guilhem - Courreau,43.6087014,3.87289929,0,S5639
S5759,5759,Saint-Hubéry,43.5735664,3.81974149,1,
591,20106,Saint-Hubéry,43.5735664,3.81974149,0,S5759
629,20231,Saint-Hubéry,43.57364796,3.81969415,0,S5759
1339,20142,Saint-Hubéry,43.5735664,3.81974149,0,S5759
S5640,5640,Saint-Jaumes,43.6137783,3.87052414,1,
101,03213,Saint-Jaumes,43.6137783,3.87052414,0,S5640
S5641,5641,Saint-Jean,43.61546532,3.89776588,1,
350,09124,Saint-Jean,43.61546532,3.89776588,0,S5641
368,09204,Saint-Jean,43.61561969,3.89765874,0,S5641
S5330,5330,Cimetière Saint-Laurent,43.569755,3.89889129,1,
564,18101,Cimetière Saint-Laurent,43.569755,3.89889129,0,S5330
577,18208,Cimetière Saint-Laurent,43.56864246,3.89998594,0,S5330
S5591,5591,Pic Saint-Loup,43.63918367,3.8545578,1,
224,06121,Pic Saint-Loup,43.63918367,3.8545578,0,S5591
228,06202,Pic Saint-Loup,43.63912389,3.8543334,0,S5591
S5644,5644,Saint-Maur,43.62101418,3.89387109,1,
535,14106,Saint-Maur,43.62101418,3.89387109,0,S5644
538,14111,Saint-Maur,43.62103793,3.89409448,0,S5644
S5659,5659,Stade de la Mosson,43.62125181,3.81737884,1,
1159,41163,Stade de la Mosson,43.62125181,3.81737884,0,S5659
1188,41263,Stade de la Mosson,43.62129674,3.81738001,0,S5659
S5397,5397,Campus Agropolis,43.64467238,3.86952202,1,
533,13203,Campus Agropolis,43.64467238,3.86952202,0,S5397
534,13204,Campus Agropolis,43.64468411,3.86869291,0,S5397
S5450,5450,Ettore Bugatti,43.5784666,3.86676957,1,
429,10162,Ettore Bugatti,43.5784666,3.86676957,0,S5450
448,10232,Ettore Bugatti,43.57853178,3.86661056,0,S5450
S5646,5646,Saint-Paul,43.63055501,3.82139486,1,
583,19102,Saint-Paul,43.63055501,3.82139486,0,S5646
1132,41105,Saint-Paul,43.6306581,3.82108813,0,S5646
1185,41251,Saint-Paul,43.6306854,3.82106408,0,S5646
S5341,5341,Saint-Pierre,43.57249326,3.89352598,1,
570,18121,Saint-Pierre,43.57249326,3.89352598,0,S5341
581,18224,Saint-Pierre,43.572405,3.8934123,0,S5341
S5648,5648,Saint-Roch,43.61520106,3.86972097,1,
73,03118,Saint-Roch,43.61520106,3.86972097,0,S5648
100,03212,Saint-Roch,43.61523911,3.86957351,0,S5648
S5775,5775,Coopérative,43.71448284,4.00220229,1,
1303,27122,Coopérative,43.71448284,4.00220229,0,S5775
1311,27222,Coopérative,43.71458131,4.00222995,0,S5775
S5256,5256,Substantion,43.65046208,3.93965442,1,
607,20136,Substantion,43.65046208,3.93965442,0,S5256
619,20212,Substantion,43.65023596,3.93974712,0,S5256
S5779,5779,Mairie,43.71229371,4.00541054,1,
1302,27121,Mairie,43.71229371,4.00541054,0,S5779
1310,27221,Mairie,43.71224935,4.00537205,0,S5779
S5206,5206,Sycomores,43.64186196,3.91063151,1,
140,04165,Sycomores,43.64186196,3.91063151,0,S5206
150,04206,Sycomores,43.64185387,3.91056939,0,S5206
S5281,5281,C. Sylvains,43.65622516,3.91453175,1,
690,22126,C. Sylvains,43.65622516,3.91453175,0,S5281
S5661,5661,TaM,43.58140076,3.87032292,1,
505,12130,TaM,43.58140076,3.87032292,0,S5661
523,12227,TaM,43.58141395,3.8700265,0,S5661
S5754,5754,Le Terral,43.59258807,3.828225,1,
1108,38101,Le Terral,43.59258807,3.828225,0,S5754
1117,38201,Le Terral,43.59249787,3.82824738,0,S5754
S5172,5172,Buissonnets,43.64551042,3.90701815,1,
143,04168,Buissonnets,43.64551042,3.90701815,0,S5172
147,04203,Buissonnets,43.64549155,3.90707953,0,S5172
S5276,5276,Les Terrasses,43.654733,3.79058701,1,
789,24112,Les Terrasses,43.654733,3.79058701,0,S5276
799,24202,Les Terrasses,43.65453961,3.79026017,0,S5276
S5763,5763,Terre Neuve,43.56103756,3.84942978,1,
859,26107,Terre Neuve,43.56103756,3.84942978,0,S5763
864,26202,Terre Neuve,43.56069523,3.84948253,0,S5763
S5323,5323,Terres du Sud,43.61854125,3.79188064,1,
832,25131,Terres du Sud,43.61854125,3.79188064,0,S5323
853,25231,Terres du Sud,43.61854125,3.79188064,0,S5323
S5316,5316,Les Thermes,43.62185549,3.80009505,1,
833,25132,Les Thermes,43.62185549,3.80009505,0,S5316
854,25232,Les Thermes,43.6218565,3.80002083,0,S5316
S5207,5207,Thym,43.63796097,3.90625349,1,
137,04162,Thym,43.63796097,3.90625349,0,S5207
153,04209,Thym,43.63776435,3.90617381,0,S5207
S5662,5662,Tonnelles,43.61405411,3.8380404,1,
8,01112,Tonnelles,43.61405411,3.8380404,0,S5662
41,01226,Tonnelles,43.61389825,3.83825901,0,S5662
409,10129,Tonnelles,43.6131082,3.83883213,0,S5662
447,10231,Tonnelles,43.61335553,3.83914795,0,S5662
1255,43113,Tonnelles,43.61348706,3.83938649,0,S5662
1292,43245,Tonnelles,43.61362099,3.83945188,0,S5662
S5385,5385,Avenue de Toulouse,43.59133239,3.85771443,1,
215,06106,Avenue de Toulouse,43.59133239,3.85771443,0,S5385
236,06215,Avenue de Toulouse,43.59182158,3.85808612,0,S5385
S5663,5663,Tournezy,43.5791452,3.87785473,1,
60,03101,Tournezy,43.5791452,3.87785473,0,S5663
S5664,5664,Tourterelles,43.62580079,3.87851985,1,
397,10107,Tourterelles,43.62580079,3.87851985,0,S5664
438,10213,Tourterelles,43.62572784,3.87859213,0,S5664
S5764,5764,Tourtourel,43.57584972,3.81973891,1,
590,20105,Tourtourel,43.57584972,3.81973891,0,S5764
630,20232,Tourtourel,43.57568932,3.81963583,0,S5764
S5414,5414,Cité de l'Arme,43.59326131,3.88961446,1,
67,03108,Cité de l'Arme,43.59326131,3.88961446,0,S5414
106,03220,Cité de l'Arme,43.59360846,3.8892281,0,S5414
S5165,5165,Treille,43.65724363,4.00316951,1,
900,29105,Treille,43.65724363,4.00316951,0,S5165
921,29208,Treille,43.65766773,4.00365244,0,S5165
S5665,5665,Universités des Sciences et Lettres,43.62915386,3.86139511,1,
218,06115,Universités Sciences et Lettres,43.62915386,3.86139511,0,S5665
233,06207,Universités Sciences et Lettres,43.62937476,3.86102972,0,S5665
1139,41119,Universités Sciences et Lettres,43.62912446,3.86156759,0,S5665
1178,41237,Universités Sciences et Lettres,43.62916023,3.86158092,0,S5665
S5666,5666,Uppsala,43.62951818,3.82095949,1,
584,19201,Uppsala,43.62951818,3.82095949,0,S5666
S5781,5781,Arènes,43.65513768,3.96729873,1,
644,21107,Arènes,43.65513768,3.96729873,0,S5781
663,21211,Arènes,43.65522698,3.96733842,0,S5781
S5797,5797,Arnel,43.53807191,3.86908689,1,
946,32101,Arnel,43.53807191,3.86908689,0,S5797
972,32212,Arnel,43.53805131,3.86927169,0,S5797
S5667,5667,Val d'Aurelle,43.64272499,3.83589768,1,
49,02128,Val d'Aurelle,43.64272499,3.83589768,0,S5667
56,02204,Val d'Aurelle,43.64281681,3.83640763,0,S5667
S5799,5799,Boulevard des Écoles,43.53396874,3.86239144,1,
947,32102,Boulevard des Écoles,43.53396874,3.86239144,0,S5799
974,32214,Boulevard des Écoles,43.53351699,3.86127975,0,S5799
10009472,32102,Boulevard des Écoles,43.53396874,3.86239144,0,S5799
S5807,5807,Olivier de Bohême,43.52725233,3.86313885,1,
952,32108,Olivier de Bohême,43.52725233,3.86313885,0,S5807
969,32209,Olivier de Bohême,43.52725233,3.86313885,0,S5807
S5800,5800,Boulevard du Chapitre,43.53333703,3.86447501,1,
954,32110,Boulevard du Chapitre,43.53333703,3.86447501,0,S5800
971,32211,Boulevard du Chapitre,43.53333703,3.86447501,0,S5800
S5809,5809,Pilou,43.52994608,3.86589171,1,
958,32115,Pilou,43.52994608,3.86589171,0,S5809
975,32215,Pilou,43.52994608,3.86589171,0,S5809
S5230,5230,Beaulieu,43.56052838,3.72665839,1,
1044,36124,Beaulieu,43.56052838,3.72665839,0,S5230
1078,36213,Beaulieu,43.56059845,3.72750063,0,S5230
S5801,5801,Domenoves,43.53068814,3.85406325,1,
950,32105,Domenoves,43.53068814,3.85406325,0,S5801
967,32206,Domenoves,43.53068814,3.85406325,0,S5801
S5784,5784,Écoles,43.65869589,3.96742515,1,
661,21209,Écoles,43.65869589,3.96742515,0,S5784
S5802,5802,Font Majour,43.5351424,3.85948206,1,
957,32114,Font Majour,43.5351424,3.85948206,0,S5802
973,32213,Font Majour,43.53484344,3.85964709,0,S5802
S5805,5805,Maison d'Arrêt,43.5463104,3.82829084,1,
956,32112,Maison d'Arrêt,43.5463104,3.82829084,0,S5805
963,32202,Maison d'Arrêt,43.54631057,3.82827849,0,S5805
S5789,5789,Monnaie,43.66057173,3.97001733,1,
646,21109,Monnaie,43.66057173,3.97001733,0,S5789
660,21208,Monnaie,43.66033884,3.96996113,0,S5789
S5803,5803,Les Moures,43.52414988,3.86004183,1,
961,32121,Les Moures,43.52414988,3.86004183,0,S5803
978,32221,Les Moures,43.52414988,3.86004183,0,S5803
S5806,5806,Myosotis,43.52867319,3.86500523,1,
953,32109,Myosotis,43.52867319,3.86500523,0,S5806
970,32210,Myosotis,43.52867319,3.86500523,0,S5806
S5791,5791,Parc Vendargues,43.66077982,3.97528622,1,
649,21112,Parc Vendargues,43.66077982,3.97528622,0,S5791
657,21205,Parc Vendargues,43.66065195,3.97541876,0,S5791
S5808,5808,Pèlerine,43.52654844,3.85504059,1,
960,32120,Pèlerine,43.52654844,3.85504059,0,S5808
977,32220,Pèlerine,43.52654844,3.85504059,0,S5808
S5810,5810,Pont de Villeneuve,43.554625,3.84451389,1,
962,32201,Pont de Villeneuve,43.554625,3.84451389,0,S5810
S5180,5180,Cimetière,43.63199134,3.89757409,1,
155,04218,Cimetière,43.63199134,3.89757409,0,S5180
S5804,5804,Les Salins,43.53065344,3.8584483,1,
959,32119,Les Salins,43.53065344,3.8584483,0,S5804
976,32219,Les Salins,43.53065344,3.8584483,0,S5804
S5811,5811,Stade,43.53336876,3.85520929,1,
948,32103,Stade,43.53336876,3.85520929,0,S5811
965,32204,Stade,43.53336876,3.85520929,0,S5811
10009482,32103,Stade,43.53336876,3.85520929,0,S5811
S5812,5812,Tadornes,43.52708132,3.86124412,1,
951,32107,Tadornes,43.52708132,3.86124412,0,S5812
968,32208,Tadornes,43.52708132,3.86124412,0,S5812
S5813,5813,Vignes Vierges,43.53227349,3.85254856,1,
949,32104,Vignes Vierges,43.53227349,3.85254856,0,S5813
966,32205,Vignes Vierges,43.53227349,3.85254856,0,S5813
S5798,5798,Avenue de la Gare,43.53716112,3.85720049,1,
955,32111,Avenue de la Gare,43.53716112,3.85720049,0,S5798
964,32203,Avenue de la Gare,43.53702651,3.85718455,0,S5798
S5795,5795,Zone Industrielle Bigos,43.65531988,3.94973367,1,
653,21121,Zone Industrielle Bigos,43.65531988,3.94973367,0,S5795
671,21224,Zone Industrielle Bigos,43.65526522,3.94978166,0,S5795
S5796,5796,Zone Industrielle Marbrerie,43.65417626,3.95467887,1,
654,21122,Zone Industrielle Marbrerie,43.65417626,3.95467887,0,S5796
672,21225,Zone Industrielle Marbrerie,43.65411243,3.95473897,0,S5796
S5508,5508,Jean Vachet,43.5923483,3.88495155,1,
507,12134,Jean Vachet,43.5923483,3.88495155,0,S5508
527,12234,Jean Vachet,43.59282788,3.88536033,0,S5508
S5418,5418,Cité Valette,43.60146447,3.8518857,1,
121,04109,Cité Valette,43.60146447,3.8518857,0,S5418
161,04232,Cité Valette,43.60154535,3.85188785,0,S5418
S5765,5765,Val des Garrigues,43.56673917,3.82659864,1,
862,26110,Val des Garrigues,43.56673917,3.82659864,0,S5765
869,26210,Val des Garrigues,43.56672154,3.82657346,0,S5765
S5231,5231,Chanterelles,43.56012771,3.70805801,1,
1057,36140,Chanterelles,43.56012771,3.70805801,0,S5231
1094,36240,Chanterelles,43.56012771,3.70805801,0,S5231
S5273,5273,La Valsière,43.65009113,3.83174554,1,
790,24116,La Valsière,43.65009113,3.83174554,0,S5273
1347,24216,La Valsière,43.65009113,3.83174554,0,S5273
S5668,5668,Vauguières,43.60449991,3.90694237,1,
413,10144,Vauguières,43.60449991,3.90694237,0,S5668
459,10251,Vauguières,43.60438453,3.90684024,0,S5668
S5670,5670,Vert Bois,43.63530315,3.86837932,1,
176,05125,Vert Bois,43.63530315,3.86837932,0,S5670
194,05206,Vert Bois,43.63422017,3.86804084,0,S5670
S5760,5760,Saint-Jean de Védas Centre,43.5747502,3.83039311,1,
609,20139,Saint-Jean de Védas Centre,43.5747502,3.83039311,0,S5760
635,20239,Saint-Jean de Védas Centre,43.57470442,3.83045373,0,S5760
1189,42101,Saint-Jean de Védas Centre,43.57480361,3.8304316,0,S5760
S5669,5669,Véga,43.59570748,3.84958085,1,
212,06103,Véga,43.59570748,3.84958085,0,S5669
239,06219,Véga,43.59567015,3.84967881,0,S5669
S5721,5721,Versant,43.66427246,4.03624266,1,
912,29129,Versant,43.66427246,4.03624266,0,S5721
S5818,5818,Via Domitia,43.64724083,3.93071205,1,
1353,30110,Via Domitia,43.64724083,3.93071205,0,S5818
1355,30205,Via Domitia,43.64724083,3.93071205,0,S5818
1217,42165,Via Domitia,43.64653267,3.92996184,0,S5818
1221,42205,Via Domitia,43.64653358,3.92989997,0,S5818
S5766,5766,Victoire 2,43.57477107,3.84958307,1,
1192,42107,Victoire 2,43.57477107,3.84958307,0,S5766
1246,42263,Victoire 2,43.57480771,3.84953459,0,S5766
S5703,5703,Saint-Martin de Vignogoul,43.58561976,3.79004065,1,
1115,38108,Saint-Martin de Vignogoul,43.58561976,3.79004065,0,S5703
1124,38208,Saint-Martin de Vignogoul,43.58569599,3.79038885,0,S5703
S5242,5242,Chênes,43.64519886,3.9417474,1,
598,20120,Chênes,43.64519886,3.9417474,0,S5242
622,20215,Chênes,43.6451222,3.9414605,0,S5242
S5325,5325,Village,43.62478596,3.79944002,1,
822,25114,Village,43.62478596,3.79944002,0,S5325
838,25204,Village,43.62471457,3.79940106,0,S5325
S5541,5541,Lycée Léonard de Vinci,43.62570496,3.82435021,1,
269,07136,Lycée Léonard de Vinci,43.62570496,3.82435021,0,S5541
301,07236,Lycée Léonard de Vinci,43.62620924,3.8236332,0,S5541
S5674,5674,Vivaldi,43.59605699,3.85607144,1,
553,17133,Vivaldi,43.59605699,3.85607144,0,S5674
561,17233,Vivaldi,43.59624327,3.85624956,0,S5674
S5675,5675,Voie Domitienne,43.62226583,3.85961488,1,
402,10112,Voie Domitienne,43.62226583,3.85961488,0,S5675
434,10207,Voie Domitienne,43.62267582,3.86050442,0,S5675
S5676,5676,Volta Fizeau,43.61387346,3.91331233,1,
356,09138,Volta Fizeau,43.61387346,3.91331233,0,S5676
389,09236,Volta Fizeau,43.61379439,3.91318642,0,S5676
S5677,5677,Voltaire,43.60355331,3.8890654,1,
1202,42131,Voltaire,43.60355331,3.8890654,0,S5677
1236,42239,Voltaire,43.60357991,3.88909086,0,S5677
S5671,5671,Vieille Poste,43.61058659,3.90006988,1,
470,11105,Vieille Poste,43.61058659,3.90006988,0,S5671
490,11218,Vieille Poste,43.61080749,3.90033574,0,S5671
S5794,5794,Zone Industrielle,43.6535364,3.96258505,1,
642,21105,Zone Industrielle,43.6535364,3.96258505,0,S5794
665,21213,Zone Industrielle,43.65334724,3.96201011,0,S5794
S5293,5293,La Draye,43.6688846,3.91751978,1,
697,22137,La Draye,43.6688846,3.91751978,0,S5293
S5680,5680,Zénith,43.61207749,3.93096802,1,
500,12117,Zénith,43.61207749,3.93096802,0,S5680
511,12204,Zénith,43.61222861,3.93108359,0,S5680
S5243,5243,Cimetière,43.65116523,3.94073895,1,
600,20123,Cimetière,43.65116523,3.94073895,0,S5243
618,20211,Cimetière,43.65119384,3.94062832,0,S5243
S5681,5681,Zoo,43.63996424,3.87314632,1,
188,05162,Zoo,43.63996424,3.87314632,0,S5681
208,05283,Zoo,43.63988389,3.87310702,0,S5681
S5225,5225,Les Clavoux,43.54341236,3.70063833,1,
1067,36201,Les Clavoux,43.54341236,3.70063833,0,S5225
1362,36136,Les Clavoux,43.54341236,3.70063833,0,S5225
S5234,5234,Les Grenaches,43.55318102,3.71850803,1,
1046,36126,Les Grenaches,43.55318102,3.71850803,0,S5234
1076,36211,Les Grenaches,43.55305239,3.71802291,0,S5234
S5369,5369,Aiguelongue (Jussieu),43.63841224,3.8830195,1,
481,11201,Aiguelongue (Jussieu),43.63841224,3.8830195,0,S5369
S5223,5223,Hauts des Clavoux,43.54501205,3.70066412,1,
1054,36135,Hauts des Clavoux,43.54501205,3.70066412,0,S5223
1068,36202,Hauts des Clavoux,43.54495751,3.70071225,0,S5223
S5232,5232,Jean Jaurès,43.55837735,3.71210732,1,
1048,36129,Jean Jaurès,43.55837735,3.71210732,0,S5232
1074,36209,Jean Jaurès,43.55837735,3.71210732,0,S5232
S5233,5233,Jean Moulin,43.55522446,3.7119326,1,
1049,36130,Jean Moulin,43.55522446,3.7119326,0,S5233
1075,36210,Jean Moulin,43.55522446,3.7119326,0,S5233
S5226,5226,Mairie,43.55004192,3.70807566,1,
1051,36132,Mairie,43.55004192,3.70807566,0,S5226
1071,36205,Mairie,43.5501299,3.70822607,0,S5226
S5427,5427,Comté de Nice,43.63860661,3.81176366,1,
19,01133,Comté de Nice,43.63860661,3.81176366,0,S5427
28,01203,Comté de Nice,43.63891991,3.81120236,0,S5427
S5236,5236,Stade,43.5559327,3.72193642,1,
1045,36125,Stade,43.5559327,3.72193642,0,S5236
1077,36212,Stade,43.55599307,3.72213564,0,S5236
S5228,5228,Tambourin,43.54893584,3.70456408,1,
1052,36133,Tambourin,43.54893584,3.70456408,0,S5228
1070,36204,Tambourin,43.54899702,3.70470149,0,S5228
S5237,5237,Temple,43.55744995,3.71646052,1,
1047,36127,Temple,43.55744995,3.71646052,0,S5237
1073,36207,Temple,43.55744995,3.71646052,0,S5237
S5428,5428,Comté de Toulouse,43.63699376,3.8192724,1,
15,01127,Comté de Toulouse,43.63699376,3.8192724,0,S5428
34,01210,Comté de Toulouse,43.63678384,3.81884611,0,S5428
S5229,5229,Tournesol,43.55338439,3.70960187,1,
1050,36131,Tournesol,43.55338439,3.70960187,0,S5229
1072,36206,Tournesol,43.55340805,3.70986198,0,S5229
S5368,5368,Aiguelongue,43.62640491,3.88217459,1,
184,05136,Aiguelongue,43.62640491,3.88217459,0,S5368
204,05236,Aiguelongue,43.62677424,3.88212271,0,S5368
1209,42147,Aiguelongue,43.62622074,3.88311015,0,S5368
1229,42223,Aiguelongue,43.62625687,3.88309875,0,S5368
S5224,5224,La Vierge,43.54641541,3.70271191,1,
1053,36134,La Vierge,43.54641541,3.70271191,0,S5224
1069,36203,La Vierge,43.54633454,3.70270998,0,S5224
S5683,5683,Cabanes de Pérols,43.55254899,3.96827878,1,
885,28117,Cabanes de Pérols,43.55254899,3.96827878,0,S5683
888,28202,Cabanes de Pérols,43.55111882,3.96893011,0,S5683
S5395,5395,Caducée,43.64356065,3.83267628,1,
795,24123,Caducée,43.64356065,3.83267628,0,S5395
811,24223,Caducée,43.64350178,3.83303373,0,S5395
S5396,5396,Cairons,43.64331313,3.8607334,1,
179,05128,Cairons,43.64331313,3.8607334,0,S5396
191,05203,Cairons,43.64302452,3.86079997,0,S5396
S5547,5547,Marie Caizergues,43.62122409,3.87542641,1,
203,05234,Marie Caizergues,43.62122409,3.87542641,0,S5547
479,11127,Marie Caizergues,43.62128699,3.87542811,0,S5547
S5305,5305,Calade,43.6278397,3.79964199,1,
823,25115,Calade,43.6278397,3.79964199,0,S5305
837,25203,Calade,43.6280096,3.79970823,0,S5305
S5212,5212,Cap Alpha,43.6596206,3.90047195,1,
683,22113,Cap Alpha,43.6596206,3.90047195,0,S5212
711,22209,Cap Alpha,43.65983431,3.90061402,0,S5212
S5505,5505,Jean Calvin,43.61866508,3.84584575,1,
404,10114,Jean Calvin,43.61866508,3.84584575,0,S5505
432,10205,Jean Calvin,43.61859164,3.84595518,0,S5505
S5353,5353,Chemin du Cambas,43.65894091,3.85024163,1,
732,23106,Chemin du Cambas,43.65894091,3.85024163,0,S5353
772,23222,Chemin du Cambas,43.65872419,3.85031018,0,S5353
S5343,5343,La Capoulière,43.58611064,3.80891228,1,
1109,38102,La Capoulière,43.58611064,3.80891228,0,S5343
1118,38202,La Capoulière,43.58631991,3.8093876,0,S5343
S5191,5191,Les Aires,43.6424987,3.89956969,1,
145,04201,Les Aires,43.6424987,3.89956969,0,S5191
1361,35121,Les Aires,43.6424987,3.89956969,0,S5191
S5241,5241,Capri,43.64605638,3.93847841,1,
597,20119,Capri,43.64605638,3.93847841,0,S5241
623,20216,Capri,43.64658897,3.93893904,0,S5241
S5592,5592,Pierre Cardenal,43.63871425,3.81902,1,
25,01142,Pierre Cardenal,43.63871425,3.81902,0,S5592
33,01209,Pierre Cardenal,43.63796243,3.81877768,0,S5592
S5433,5433,Croix d'Argent,43.59236832,3.86648632,1,
1195,42115,Croix d'Argent,43.59236832,3.86648632,0,S5433
1243,42255,Croix d'Argent,43.59236902,3.86643686,0,S5433
S5604,5604,Place Carnot,43.60326915,3.88380016,1,
321,08131,Place Carnot,43.60326915,3.88380016,0,S5604
1201,42129,Place Carnot,43.60383103,3.88411227,0,S5604
1237,42241,Place Carnot,43.60383068,3.88413701,0,S5604
S5398,5398,Carriéra,43.64086339,3.81897677,1,
26,01143,Carriéra,43.64086339,3.81897677,0,S5398
32,01208,Carriéra,43.64076149,3.81919694,0,S5398
S5209,5209,Aqueduc,43.67877631,3.98608455,1,
1008,35104,Aqueduc,43.67877631,3.98608455,0,S5209
1019,35202,Aqueduc,43.67913721,3.98659048,0,S5209
S5210,5210,Castries Centre,43.67468382,3.98325362,1,
1007,35103,Centre,43.67468382,3.98325362,0,S5210
1020,35203,Centre,43.6748022,3.98256339,0,S5210
S5211,5211,Collège Les Pins,43.68419007,3.99070093,1,
1009,35106,Collège Les Pins,43.68419007,3.99070093,0,S5211
1023,35209,Collège Les Pins,43.68428703,3.99082763,0,S5211
S5173,5173,Castelnau Zone d'Activités,43.63650331,3.92728065,1,
594,20116,Castelnau Zone d'Activités,43.63650331,3.92728065,0,S5173
626,20219,Castelnau Zone d'Activités,43.63665426,3.92740863,0,S5173
S5174,5174,Castors,43.63282611,3.90388446,1,
129,04127,Castors,43.63282611,3.90388446,0,S5174
1026,35214,Castors,43.6328473,3.90366226,0,S5174
